name,category,price,min_price,max_price,tatemono_measure,min_tatemono_measure,max_tatemono_measure,tochi_measure,min_tochi_measure,max_tochi_measure,madori,min_madori,max_madori,hikiwatashi,kanseijiki,floor,building,adress,nearest_line,nearest_station,nearest_bus_station,bus_time,walk_time,url,latitude,longitude
オープンプレイス代田橋アクセス,新築一戸建て,6780万円～6880万円,6780,6880.0,103.28m～107.02m,103.28,107.02,84.42m～92.66m,84.42,92.66,2LDK+S（納戸）～2LDK+2S（納戸）,2LDK+S,2LDK+2S,2023年8月予定,2023年7月予定,,木造　地上2階,東京都世田谷区羽根木２,京王線,代田橋,,,5,https://suumo.jp/ikkodate/tokyo/sc_setagaya/nc_71057004/,35.6669737,139.6573257
上祖師谷５（仙川駅） 3980万円,中古一戸建て,3980万円,3980,3980.0,93.11m（登記）,93.11,93.11,72.63m、路地状部分：7m含,72.63,72.63,4DK+S（納戸）,4DK+S,4DK+S,相談,1991年6月,,木造3階建,東京都世田谷区上祖師谷５,京王線,仙川,,,12,https://suumo.jp/chukoikkodate/tokyo/sc_setagaya/nc_70215038/,35.6568388,139.5923085
住友林業の分譲住宅『フォレストガーデン世田谷等々力』,新築一戸建て,1億990万円～1億5300万円,10990,15300.0,92.94m～109.54m,92.94,109.54,95m～107.24m,95.0,107.24,3LDK～5LDK,3LDK,5LDK,2023年4月下旬予定,2022年12月下旬,,木造軸組工法（MB構法）2階建,東京都世田谷区等々力７-46番24号 他（地番）,東急大井町線,尾山台,,,12,https://suumo.jp/ikkodate/tokyo/sc_setagaya/nc_70615877/,35.6100145,139.6593985
住友林業の分譲住宅『フォレストガーデン二子玉川』,新築一戸建て,1億1300万円～1億2300万円,11300,12300.0,99.82m～103.07m,99.82,103.07,108.42m～114.73m,108.42,114.73,3LDK・4LDK,3LDK,4LDK,2023年4月下旬予定,2022年8月上旬,,木造軸組工法（MB構法）2階建,東京都世田谷区岡本２-574-1番他（地番）,東急田園都市線,二子玉川,,,19,https://suumo.jp/ikkodate/tokyo/sc_setagaya/nc_97929458/,35.6217556,139.6190716
コモンステージ上用賀【積水ハウス】,新築一戸建て,1億4460万円～1億7910万円,14460,17910.0,102.95m～114.67m（31.14坪～34.68坪）,102.95,114.67,101.6m～120.02m（30.73坪～36.30坪）,101.6,120.02,3LDK,3LDK,3LDK,2023年2月,2023年1月,,軽量鉄骨2階建(7戸),東京都世田谷区上用賀６-93番11他,東急田園都市線,用賀,,,17,https://suumo.jp/ikkodate/tokyo/sc_setagaya/nc_70467440/,35.635792,139.6254456
グローイングスクエア世田谷千歳台グランデ　第2期,新築一戸建て,未定,未定,,90.67m～93.57m（27.42坪～28.30坪）,90.67,93.57,92.89m～101.09m（28.09坪～30.57坪）（実測）,92.89,101.09,2LDK・3LDK※3・4LDKに変更可（有償）,2LDK,3LDK,2023年3月予定,2022年12月中旬,,木造2階建て　軸組(在来)工法 スレート葺,東京都世田谷区千歳台２-692-3他（地番）,小田急線,祖師ヶ谷大蔵,,,16,https://suumo.jp/ikkodate/tokyo/sc_setagaya/nc_70961966/,35.650786,139.6114238
経堂プロジェクト2区画／全3区画,建築条件付土地,5380万円・5680万円,5380,5680.0,,,,70m・72.83m（21.17坪・22.03坪）（実測）,70.0,72.83,,,,,,,,東京都世田谷区船橋５,小田急線,経堂,,,17,https://suumo.jp/tochi/tokyo/sc_setagaya/nc_71281497/,35.6558011,139.6267204
野村不動産　プラウドシーズン二子玉川ヒルサイドステージ,新築一戸建て,未定,未定,,101m～138.17m,101.0,138.17,103.88m～120.1m,103.88,120.1,1LDK+2S（納戸）～4LDK,1LDK+2S,4LDK,2023年6月中旬予定,2023年2月上旬,,木造2階建（２×４工法）※ST6のみ3階建,東京都世田谷区瀬田２丁目８５７－７他（地番）,東急田園都市線,二子玉川,,,13,https://suumo.jp/ikkodate/tokyo/sc_setagaya/nc_71093865/,35.6169555,139.6355588
LIST GARDEN　下北沢,新築一戸建て,1億990万円・1億3990万円,10990,13990.0,107.16m・111.78m,107.16,111.78,97.27m・97.85m,97.27,97.85,2LDK+S（納戸）・3LDK,2LDK+S,3LDK,即引渡可,2022年10月,,-,東京都世田谷区大原１,小田急線,下北沢,,,10,https://suumo.jp/ikkodate/tokyo/sc_setagaya/nc_70739390/,35.6692227,139.6643416
▽BASE奥沢１▽ 悠久の杜「奥沢」エリア、上質な寛ぎを追求した至高の邸宅,新築一戸建て,1億3000万円～1億6000万円台（予定）,13000,16000.0,83.11m・131.1m（実測）,83.11,131.1,82.64m・82.65m,82.64,82.65,2LDK+S（納戸）～4LDK+S（納戸）,2LDK+S,4LDK+S,相談,契約後10ヶ月,,木造2階建、木・RC造2階・地下1階建,東京都世田谷区奥沢１,東急大井町線,緑が丘,,,5,https://suumo.jp/ikkodate/tokyo/sc_setagaya/nc_70781695/,35.60091600000001,139.6771
世田谷区八幡山の家,新築一戸建て,5180万円,5180,5180.0,48.6m,48.6,48.6,61.15m,61.15,61.15,2LDK,2LDK,2LDK,2023年7月予定,2023年6月予定,,木造　地上2階,東京都世田谷区八幡山３,京王線,八幡山,,,10,https://suumo.jp/ikkodate/tokyo/sc_setagaya/nc_71575814/,35.6657684,139.6158849
鎌田2丁目　新築全2棟現場,新築一戸建て,5880万円～5980万円,5880,5980.0,90.62m～96.93m（27.41坪～29.32坪）,90.62,96.93,70.26m～70.35m（21.25坪～21.28坪）（実測）,70.26,70.35,3LDK,3LDK,3LDK,即引渡可,2022年12月,,木造3階建,東京都世田谷区鎌田２,東急田園都市線,二子玉川,砧本村,10,2,https://suumo.jp/ikkodate/tokyo/sc_setagaya/nc_71250268/,35.6186757,139.6114238
世田谷区喜多見3丁目　新築分譲住宅　全3棟　最終2棟,新築一戸建て,5980万円・6380万円,5980,6380.0,91.08m・94.6m（実測）,91.08,94.6,119.5m・136.18m（実測）,119.5,136.18,3LDK+2S（納戸）・4LDK,3LDK+2S,4LDK,2023年6月末予定,2023年6月末予定,,木造2階建,東京都世田谷区喜多見３,小田急線,喜多見,,,23,https://suumo.jp/ikkodate/tokyo/sc_setagaya/nc_71058451/,35.62552400000001,139.5999539
～世田谷区大蔵5丁目～　最終1棟,新築一戸建て,5990万円,5990,5990.0,88.6m,88.6,88.6,115.53m,115.53,115.53,4LDK,4LDK,4LDK,即引渡可,2022年12月,,木造2階建,東京都世田谷区大蔵５,小田急線,成城学園前,,,23,https://suumo.jp/ikkodate/tokyo/sc_setagaya/nc_71329663/,35.6286048,139.6076002
～ハートフルタウン～世田谷大蔵5丁目～全4棟！今回販売1棟,新築一戸建て,5990万円,5990,5990.0,88.6m,88.6,88.6,115.53m（実測）,115.53,115.53,4LDK,4LDK,4LDK,即引渡可,2022年12月中旬,,木造サイディング貼アスファルトシングル葺2階建て,東京都世田谷区大蔵５-22-10,小田急線,成城学園前,,,23,https://suumo.jp/ikkodate/tokyo/sc_setagaya/nc_71468479/,35.6282098,139.6066643
世田谷区宇奈根1丁目12-6　新築分譲住宅　全2棟　最終1棟,新築一戸建て,6080万円,6080,6080.0,90.26m（実測）,90.26,90.26,113.01m（実測）,113.01,113.01,4LDK,4LDK,4LDK,即引渡可,2022年9月下旬,,木造2階建,東京都世田谷区宇奈根１-12-6,東急田園都市線,二子玉川,砧本村,13,6,https://suumo.jp/ikkodate/tokyo/sc_setagaya/nc_71483923/,35.6194501,139.60536
～世田谷宇奈根1丁目　2期～　　最終1棟,新築一戸建て,6080万円,6080,6080.0,90.26m,90.26,90.26,113.01m,113.01,113.01,4LDK,4LDK,4LDK,即引渡可,2022年9月下旬,,木造2階建,東京都世田谷区宇奈根１,東急田園都市線,二子玉川,砧本村,13,6,https://suumo.jp/ikkodate/tokyo/sc_setagaya/nc_98521889/,35.6203799,139.6056885
喜多見５丁目　新築分譲住宅　最終1棟,新築一戸建て,6190万円,6190,6190.0,86.12m（26.05坪）（登記）,86.12,86.12,106.97m（32.35坪）（登記）,106.97,106.97,3LDK,3LDK,3LDK,2023年3月末予定,2023年3月末予定,,木造2階建て,東京都世田谷区喜多見５,小田急線,成城学園前,,,19,https://suumo.jp/ikkodate/tokyo/sc_setagaya/nc_70422654/,35.6283311,139.6012282
ALAMODO Specialty　【大幅価格変更!!】世田谷区祖師谷３丁目　駅10分　最終1棟！,新築一戸建て,6280万円,6280,6280.0,72.79m,72.79,72.79,88.13m,88.13,88.13,3LDK,3LDK,3LDK,即引渡可,2022年8月初旬,,木造2階建（軸組工法）,東京都世田谷区祖師谷３-47,小田急線,祖師ヶ谷大蔵,,,10,https://suumo.jp/ikkodate/tokyo/sc_setagaya/nc_71367517/,35.64644920000001,139.6045734
オープンプレイス田園調布コンフォート,新築一戸建て,6380万円,6380,6380.0,77.42m,77.42,77.42,100.28m,100.28,100.28,2LDK+S（納戸）,2LDK+S,2LDK+S,2023年8月予定,2023年7月予定,,木造　地上2階,東京都世田谷区玉堤１,東急東横線,田園調布,,,16,https://suumo.jp/ikkodate/tokyo/sc_setagaya/nc_71114309/,35.5975486,139.651586
【17.6帖の広々LDK】～大型4LDK～世田谷区宇奈根1丁目　新築分譲住宅　全1棟,新築一戸建て,6388万円,6388,6388.0,87.2m（26.37坪）,87.2,87.2,109.06m（32.99坪）,109.06,109.06,4LDK,4LDK,4LDK,即引渡可,2022年12月,,木造2階建,東京都世田谷区宇奈根１-8-8,東急田園都市線,二子玉川,砧本村,14,9,https://suumo.jp/ikkodate/tokyo/sc_setagaya/nc_71736225/,35.6197593,139.6038367
三軒茶屋駅徒歩7分　上馬1丁目リフォーム済戸建,中古一戸建て,4300万円,4300,4300.0,57.95m（登記）,57.95,57.95,49.87m（登記）,49.87,49.87,3DKK,3DKK,3DKK,相談,1977年5月,,木造2階建,東京都世田谷区上馬１,東急田園都市線,三軒茶屋,,,7,https://suumo.jp/chukoikkodate/tokyo/sc_setagaya/nc_71765348/,35.6383248,139.6688067
世田谷区上馬　中古戸建,中古一戸建て,4300万円,4300,4300.0,57.95m（登記）、賃貸付住宅（賃貸部分25.25m）,57.95,57.95,49.87m（登記）,49.87,49.87,2DK,2DK,2DK,相談,1977年5月,,木造2階建,東京都世田谷区上馬１,東急田園都市線,三軒茶屋,,,7,https://suumo.jp/chukoikkodate/tokyo/sc_setagaya/nc_71755780/,35.6383248,139.6688067
京王線『八幡山』駅徒歩７分　３ＬＤＫ車庫付住宅  ,中古一戸建て,4880万円,4880,4880.0,76.78m,76.78,76.78,52.68m（登記）,52.68,52.68,3LDK,3LDK,3LDK,即引渡可,2004年11月,,木造3階建,東京都世田谷区上北沢５,京王線,八幡山,,,7,https://suumo.jp/chukoikkodate/tokyo/sc_setagaya/nc_70732591/,35.672844,139.6177969
【売戸建】世田谷区深沢６　☆週末現地販売開催中☆,中古一戸建て,4980万円,4980,4980.0,78.61m（23.77坪）,78.61,78.61,50.26m（15.20坪）,50.26,50.26,2LDK+S（納戸）,2LDK+S,2LDK+S,相談,1999年3月,,木造2階地下1階建,東京都世田谷区深沢６,東急田園都市線,駒沢大学,,,20,https://suumo.jp/chukoikkodate/tokyo/sc_setagaya/nc_71757180/,35.6236249,139.6522237
世田谷区大蔵　中古戸建,中古一戸建て,5480万円,5480,5480.0,73.98m（登記）,73.98,73.98,44.56m（登記）,44.56,44.56,3LDK,3LDK,3LDK,相談,2003年6月,,木造3階建,東京都世田谷区大蔵１,小田急線,祖師ヶ谷大蔵,,,18,https://suumo.jp/chukoikkodate/tokyo/sc_setagaya/nc_71715308/,35.634252,139.6216211
世田谷区北烏山２丁目戸建て,中古一戸建て,5480万円,5480,5480.0,83.94m（25.39坪）（登記）,83.94,83.94,60m（18.14坪）（登記）,60.0,60.0,2LDK+2S（納戸）,2LDK+2S,2LDK+2S,相談,2016年7月,,木造3階建,東京都世田谷区北烏山２,京王井の頭線,久我山,,,15,https://suumo.jp/chukoikkodate/tokyo/sc_setagaya/nc_71501423/,35.6805529,139.5999539
オープンセレクション北烏山,中古一戸建て,5730万円,5730,5730.0,87.03m,87.03,87.03,84.69m,84.69,84.69,2LDK+S（納戸）,2LDK+S,2LDK+S,相談,2020年6月,,木造　地上2階,東京都世田谷区北烏山７,京王井の頭線,久我山,,,20,https://suumo.jp/chukoikkodate/tokyo/sc_setagaya/nc_70568649/,35.68039390000001,139.5910344
鎌田２（二子玉川駅） 5900万円,中古一戸建て,5900万円,5900,5900.0,81m,81.0,81.0,94.11m,94.11,94.11,2LDK+S（納戸）,2LDK+S,2LDK+S,相談,2020年4月,,木造2階建,東京都世田谷区鎌田２,東急田園都市線,二子玉川,,,23,https://suumo.jp/chukoikkodate/tokyo/sc_setagaya/nc_71408097/,35.6186757,139.6114238
鎌田２ 5900万円,中古一戸建て,5900万円,5900,5900.0,81m,81.0,81.0,94.11m,94.11,94.11,3LDK,3LDK,3LDK,相談,2020年4月,,木造2階建,東京都世田谷区鎌田２,東急田園都市線,二子玉川,砧本村,13,6,https://suumo.jp/chukoikkodate/tokyo/sc_setagaya/nc_71551464/,35.6186757,139.6114238
大蔵5丁目　中古戸建,中古一戸建て,5980万円,5980,5980.0,101.91m,101.91,101.91,101.5m,101.5,101.5,2LDK,2LDK,2LDK,相談,2003年12月,,木造3階建,東京都世田谷区大蔵５,小田急線,成城学園前,,,22,https://suumo.jp/chukoikkodate/tokyo/sc_setagaya/nc_70775554/,35.6286048,139.6076002
世田谷区砧七丁目　中古戸建,中古一戸建て,6480万円,6480,6480.0,83.19m（25.16坪）（登記）,83.19,83.19,87.6m（26.49坪）（登記）,87.6,87.6,1LDK+S（納戸）,1LDK+S,1LDK+S,相談,2016年8月,,木造2階建,東京都世田谷区砧７,小田急線,祖師ヶ谷大蔵,,,12,https://suumo.jp/chukoikkodate/tokyo/sc_setagaya/nc_71396486/,35.6361188,139.6063258
♪予約制内覧会受付中♪◆フルリノベーション中古戸建◆,中古一戸建て,6499万円,6499,6499.0,51.75m,51.75,51.75,53.42m,53.42,53.42,1LDK,1LDK,1LDK,即引渡可,2005年7月,,木造2階建,東京都世田谷区松原３,京王線,下高井戸,,,8,https://suumo.jp/chukoikkodate/tokyo/sc_setagaya/nc_70659120/,35.6655983,139.6439339
世田谷区松原　中古戸建,中古一戸建て,6499万円,6499,6499.0,53.42m,53.42,53.42,51.75m,51.75,51.75,1LDK,1LDK,1LDK,相談,2005年7月,,木造2階建,東京都世田谷区松原３,京王線,下高井戸,,,8,https://suumo.jp/chukoikkodate/tokyo/sc_setagaya/nc_70770952/,35.6655983,139.6439339
世田谷区宇奈根2丁目　戸建,中古一戸建て,6880万円,6880,6880.0,102.46m（30.99坪）,102.46,102.46,134.82m（40.78坪）,134.82,134.82,3LDK,3LDK,3LDK,即引渡可,2014年12月,,木造2階建,東京都世田谷区宇奈根２,小田急線,成城学園前,,,32,https://suumo.jp/chukoikkodate/tokyo/sc_setagaya/nc_71606216/,35.62062,139.600591
世田谷区上祖師谷2丁目,中古一戸建て,6880万円,6880,6880.0,79.49m,79.49,79.49,102.68m,102.68,102.68,3LDK,3LDK,3LDK,相談,2017年3月,,木造2階建,東京都世田谷区上祖師谷２,京王線,千歳烏山,,,17,https://suumo.jp/chukoikkodate/tokyo/sc_setagaya/nc_71645865/,35.6599211,139.5999539
【２０１４年築】北・西角地 ４０坪超♪３LDK+P２台,中古一戸建て,6880万円,6880,6880.0,102.46m（30.99坪）,102.46,102.46,134.82m（40.78坪）,134.82,134.82,3LDK,3LDK,3LDK,相談,2014年12月,,木造2階建,東京都世田谷区宇奈根２,小田急線,成城学園前,,,28,https://suumo.jp/chukoikkodate/tokyo/sc_setagaya/nc_71757471/,35.62062,139.600591
「住んでよし、訪れてよし」世田谷　上北沢中古戸建,中古一戸建て,6980万円,6980,6980.0,85.68m（登記）,85.68,85.68,86.38m（登記）,86.38,86.38,3LDK+S（納戸）,3LDK+S,3LDK+S,相談,2005年7月,,木造2階建,東京都世田谷区上北沢５,京王線,八幡山,,,9,https://suumo.jp/chukoikkodate/tokyo/sc_setagaya/nc_71754638/,35.672844,139.6177969
上北沢５（八幡山駅） 6980万円,中古一戸建て,6980万円,6980,6980.0,85.68m,85.68,85.68,86.38m（登記）,86.38,86.38,3LDK+S（納戸）,3LDK+S,3LDK+S,即引渡可,2005年7月,,木造2階建,東京都世田谷区上北沢５,京王線,八幡山,,,8,https://suumo.jp/chukoikkodate/tokyo/sc_setagaya/nc_71763083/,35.672844,139.6177969
♪ご見学予約受付中♪◆2005年築のリノベーション戸建て◆,中古一戸建て,6980万円,6980,6980.0,85.68m（実測）,85.68,85.68,86.5m（実測）,86.5,86.5,3LDK+S（納戸）,3LDK+S,3LDK+S,相談,2005年7月,,木造2階建,東京都世田谷区上北沢５,京王線,八幡山,,,8,https://suumo.jp/chukoikkodate/tokyo/sc_setagaya/nc_71754314/,35.672844,139.6177969
オープンライブス三軒茶屋アベニュー,新築一戸建て,6480万円・7280万円,6480,7280.0,75.6m・92.71m,75.6,92.71,60.04m・76.3m,60.04,76.3,1LDK+2S（納戸）,1LDK+2S,1LDK+2S,2023年8月予定,2023年7月予定,,木造　地上3階,東京都世田谷区代沢４,東急田園都市線,三軒茶屋,,,13,https://suumo.jp/ikkodate/tokyo/sc_setagaya/nc_71669519/,35.6527263,139.667531
祖師ヶ谷大蔵駅　世田谷区祖師谷3丁目　新築一戸建て,新築一戸建て,6680万円,6680,6680.0,72.79m（22.01坪）（登記）,72.79,72.79,88.13m（26.65坪）（登記）,88.13,88.13,2LDK+S（納戸）,2LDK+S,2LDK+S,即引渡可,2022年11月,,木造2階建,東京都世田谷区祖師谷３,小田急線,祖師ヶ谷大蔵,,,10,https://suumo.jp/ikkodate/tokyo/sc_setagaya/nc_71606782/,35.6447785,139.6050513
【駐車2台可能】～南道路に面した陽当たりの良い立地～☆新築4邸☆世田谷区宇奈根2丁目,新築一戸建て,6680万円～7080万円,6680,7080.0,94.4m・101.86m（28.55坪・30.81坪）,94.4,101.86,118.42m～130.83m（35.82坪～39.57坪）,118.42,130.83,2LDK+2S（納戸）・4LDK,2LDK+2S,4LDK,2023年3月予定,2023年3月初旬予定,,木造2階建,東京都世田谷区宇奈根２,東急田園都市線,二子玉川,鎌田,9,11,https://suumo.jp/ikkodate/tokyo/sc_setagaya/nc_71736286/,35.62062,139.600591
♪予約制内覧会開催中♪◆桜丘　新築戸建　最終１棟◆,新築一戸建て,6680万円,6680,6680.0,111.79m,111.79,111.79,104.53m,104.53,104.53,3LDK,3LDK,3LDK,即引渡可,2022年7月末,,-,東京都世田谷区桜丘４,小田急線,千歳船橋,,,11,https://suumo.jp/ikkodate/tokyo/sc_setagaya/nc_71177695/,35.6404997,139.6228959
世田谷区桜丘４丁目・新築一戸建て,新築一戸建て,6680万円,6680,6680.0,111.79m,111.79,111.79,104.53m,104.53,104.53,4LDK,4LDK,4LDK,即引渡可,2022年4月,,木造2階建,東京都世田谷区桜丘４,小田急線,千歳船橋,,,11,https://suumo.jp/ikkodate/tokyo/sc_setagaya/nc_71056147/,35.6404997,139.6228959
～世田谷区給田1丁目　21‐1期～　全1棟,新築一戸建て,6680万円,6680,6680.0,61.26m,61.26,61.26,76.97m,76.97,76.97,3LDK,3LDK,3LDK,2023年3月予定,2023年3月,,木造2階建,東京都世田谷区給田１,京王線,千歳烏山,,,13,https://suumo.jp/ikkodate/tokyo/sc_setagaya/nc_71129214/,35.6625701,139.5923085
♪予約制内覧会開催中♪◆上北沢の新築戸建◆,新築一戸建て,6780万円,6780,6780.0,78.82m（実測）、サイクルガレージ付住宅（サイクルガレージ部分15.11m）,78.82,78.82,63.01m（実測）,63.01,63.01,2LDK+S（納戸）,2LDK+S,2LDK+S,2023年6月予定,2023年5月,,木造3階建,東京都世田谷区上北沢１,京王線,桜上水,,,13,https://suumo.jp/ikkodate/tokyo/sc_setagaya/nc_71754469/,35.6621675,139.6254456
世田谷区松原1丁目　新築分譲住宅　全1棟,新築一戸建て,6780万円,6780,6780.0,82.71m（実測）,82.71,82.71,40.95m（実測）,40.95,40.95,2LDK+S（納戸）,2LDK+S,2LDK+S,即引渡可,2022年12月初旬,,木造3階建,東京都世田谷区松原１,京王線,代田橋,,,3,https://suumo.jp/ikkodate/tokyo/sc_setagaya/nc_71059105/,35.667411,139.6541369
♪予約制内覧会開催中♪◆価格改定　松原の新築戸建◆,新築一戸建て,6780万円,6780,6780.0,82.71m（実測）,82.71,82.71,40.95m（実測）,40.95,40.95,2LDK+S（納戸）,2LDK+S,2LDK+S,即引渡可,2023年1月,,木造3階建,東京都世田谷区松原１,京王線,明大前,,,10,https://suumo.jp/ikkodate/tokyo/sc_setagaya/nc_71661751/,35.667411,139.6541369
今春完成♪２LDK+P１台♪サイクルガレージ・ルーフバルコニー♪日当たり良好,新築一戸建て,6780万円,6780,6780.0,78.82m（23.84坪）,78.82,78.82,63.01m（19.06坪）,63.01,63.01,2LDK,2LDK,2LDK,相談,2023年5月上旬予定,,-,東京都世田谷区上北沢１,京王線,桜上水,,,13,https://suumo.jp/ikkodate/tokyo/sc_setagaya/nc_71746720/,35.6621675,139.6254456
世田谷区松原1丁目　新築一戸建,新築一戸建て,6780万円,6780,6780.0,82.71m,82.71,82.71,40.95m,40.95,40.95,3LDK,3LDK,3LDK,契約後1ヶ月,2022年12月,,木造3階建,東京都世田谷区松原１,京王線,代田橋,,,3,https://suumo.jp/ikkodate/tokyo/sc_setagaya/nc_71380757/,35.667411,139.6541369
世田谷区中町４丁目　新築分譲住宅,新築一戸建て,6780万円,6780,6780.0,60.02m（実測）,60.02,60.02,47.46m（実測）,47.46,47.46,1LDK+S（納戸）,1LDK+S,1LDK+S,2023年3月予定,2023年3月,,木造2階建,東京都世田谷区中町４,東急大井町線,上野毛,,,10,https://suumo.jp/ikkodate/tokyo/sc_setagaya/nc_71193868/,35.6177391,139.6432963
世田谷区宇奈根２丁目　新築分譲住宅≪全４棟≫,新築一戸建て,6880万円～7280万円,6880,7280.0,94.4m・101.86m,94.4,101.86,118.42m～130.83m,118.42,130.83,2LDK+2S（納戸）・4LDK,2LDK+2S,4LDK,2023年3月末予定,2023年3月末予定,,木造2階建,東京都世田谷区宇奈根２-17,東急田園都市線,二子玉川,鎌田,9,11,https://suumo.jp/ikkodate/tokyo/sc_setagaya/nc_71116422/,35.6221711,139.6026618
ミラスモシリーズ世田谷区宇奈根第5期,新築一戸建て,6880万円～7280万円,6880,7280.0,94.4m～101.86m,94.4,101.86,118.47m～129.72m,118.47,129.72,2LDK+S（納戸）～4LDK,2LDK+S,4LDK,2023年4月予定,2023年3月予定,,木造　地上2階,東京都世田谷区宇奈根２,東急田園都市線,二子玉川,鎌田,15,12,https://suumo.jp/ikkodate/tokyo/sc_setagaya/nc_71721333/,35.62062,139.600591
世田谷区宇奈根2丁目　全2棟　新築分譲住宅,新築一戸建て,6890万円,6890,6890.0,99.36m,99.36,99.36,114.88m,114.88,114.88,4LDK,4LDK,4LDK,2023年2月,2023年2月予定,,-,東京都世田谷区宇奈根２-10,小田急線,狛江,宇奈根地区会館,16,5,https://suumo.jp/ikkodate/tokyo/sc_setagaya/nc_70335931/,35.6205792,139.6029804
～世田谷区喜多見4丁目　第2～　全1棟,新築一戸建て,6980万円,6980,6980.0,87.48m,87.48,87.48,132.29m,132.29,132.29,4LDK,4LDK,4LDK,2023年4月予定,2023年4月,,木造2階建,東京都世田谷区喜多見４,小田急線,喜多見,,,21,https://suumo.jp/ikkodate/tokyo/sc_setagaya/nc_71068726/,35.6280569,139.5948569
【新築戸建　完成済み】世田谷区上祖師谷　４LDK+駐車１台　リビング１９．４帖,新築一戸建て,6980万円,6980,6980.0,90.01m（27.22坪）,90.01,90.01,90.87m（27.48坪）,90.87,90.87,3LDK,3LDK,3LDK,相談,2022年12月,,木造2階建,東京都世田谷区上祖師谷２,京王線,千歳烏山,,,17,https://suumo.jp/ikkodate/tokyo/sc_setagaya/nc_71757545/,35.6599211,139.5999539
♪予約制内覧会開催中♪◆最終１棟　豪徳寺　新築戸建◆,新築一戸建て,7180万円,7180,7180.0,105.53m（登記）,105.53,105.53,52.74m（実測）,52.74,52.74,3LDK,3LDK,3LDK,即引渡可,2022年10月末,,-,東京都世田谷区豪徳寺１,小田急線,豪徳寺,,,3,https://suumo.jp/ikkodate/tokyo/sc_setagaya/nc_71189501/,35.6530591,139.6483975
豪徳寺1丁目新築戸建て（借地権付）,新築一戸建て,7180万円,7180,7180.0,105.53m（31.92坪）（実測）,105.53,105.53,52.74m（15.95坪）（実測）,52.74,52.74,4LDK,4LDK,4LDK,即引渡可,2022年10月末,,木造3階建、木造3階建,東京都世田谷区豪徳寺１-47-7,小田急線,豪徳寺,,,4,https://suumo.jp/ikkodate/tokyo/sc_setagaya/nc_98181123/,35.65571449999999,139.6484274
オープンプレイス桜プレシャス,新築一戸建て,7280万円,7280,7280.0,61.48m,61.48,61.48,76.78m,76.78,76.78,1LDK+2S（納戸）,1LDK+2S,1LDK+2S,2023年9月予定,2023年8月予定,,木造　地上2階,東京都世田谷区桜２,東急世田谷線,宮の坂,,,10,https://suumo.jp/ikkodate/tokyo/sc_setagaya/nc_71245478/,35.6438523,139.6369204
【２００５年築・３階建】リビング+３部屋+納戸+駐車場,中古一戸建て,6980万円,6980,6980.0,85.68m（25.91坪）,85.68,85.68,86.5m（26.16坪）,86.5,86.5,3LDK+S（納戸）,3LDK+S,3LDK+S,相談,2005年7月,,木造2階建,東京都世田谷区上北沢５,京王線,八幡山,,,8,https://suumo.jp/chukoikkodate/tokyo/sc_setagaya/nc_71754580/,35.672844,139.6177969
２０１１年築リフォーム中古戸建　３ＬＤＫ＋車１　建物９０m,中古一戸建て,6980万円,6980,6980.0,90.04m（27.23坪）,90.04,90.04,59.39m（17.96坪）,59.39,59.39,3LDK,3LDK,3LDK,即引渡可,2011年4月,,木造3階建,東京都世田谷区岡本１,東急田園都市線,用賀,,,19,https://suumo.jp/chukoikkodate/tokyo/sc_setagaya/nc_71757192/,35.6257099,139.6203463
砧公園のほとり　すぐにお住まいになれるリフォーム住宅,中古一戸建て,6980万円,6980,6980.0,90.04m,90.04,90.04,59.39m,59.39,59.39,3LDK,3LDK,3LDK,相談,2011年4月,,木造3階建,東京都世田谷区岡本１,東急田園都市線,用賀,,,21,https://suumo.jp/chukoikkodate/tokyo/sc_setagaya/nc_71499811/,35.6257099,139.6203463
世田谷区上北沢5丁目　戸建,中古一戸建て,6980万円,6980,6980.0,85.68m,85.68,85.68,86.38m,86.38,86.38,3LDK+S（納戸）,3LDK+S,3LDK+S,相談,2005年7月,,木造2階建,東京都世田谷区上北沢５,京王線,八幡山,,,8,https://suumo.jp/chukoikkodate/tokyo/sc_setagaya/nc_71749631/,35.672844,139.6177969
世田谷区弦巻の家,中古一戸建て,6980万円,6980,6980.0,85.97m,85.97,85.97,49.12m,49.12,49.12,1LDK+2S（納戸）,1LDK+2S,1LDK+2S,相談,2012年1月,,木造一部RC造　地上2階　地下1階（一部）,東京都世田谷区弦巻５,東急田園都市線,桜新町,,,13,https://suumo.jp/chukoikkodate/tokyo/sc_setagaya/nc_71619528/,35.6368497,139.6394707
世田谷区弦巻5丁目　中古戸建て,中古一戸建て,6980万円,6980,6980.0,79.17m（23.94坪）、うち地下室22.66m、１階車庫4.12m,79.17,79.17,50m（15.12坪）（登記）,50.0,50.0,2LDK+S（納戸）,2LDK+S,2LDK+S,相談,2003年11月,,木造2階地下1階建,東京都世田谷区弦巻５,東急田園都市線,桜新町,,,12,https://suumo.jp/chukoikkodate/tokyo/sc_setagaya/nc_71404455/,35.6368497,139.6394707
２０１４年完成の築浅戸建　LDK１９帖　全室６帖以上　充実した居住空間の２階建,中古一戸建て,6990万円,6990,6990.0,85.86m,85.86,85.86,108.87m,108.87,108.87,3LDK,3LDK,3LDK,相談,2014年4月,,木造2階建,東京都世田谷区尾山台１,東急大井町線,尾山台,,,17,https://suumo.jp/chukoikkodate/tokyo/sc_setagaya/nc_71709330/,35.5987695,139.6560501
桜並木至近　桜丘3丁目の戸建　空室につき即日ご案内可能です！,中古一戸建て,7180万円,7180,7180.0,86.3m（登記）,86.3,86.3,70.77m（登記）,70.77,70.77,3LDK,3LDK,3LDK,即引渡可,2017年1月,,木造3階建（軸組工法）,東京都世田谷区桜丘３,小田急線,千歳船橋,,,10,https://suumo.jp/chukoikkodate/tokyo/sc_setagaya/nc_70315459/,35.6408929,139.6267204
♪ご見学予約受付中♪◆世田谷区代田の新規リフォーム戸建◆,中古一戸建て,7380万円,7380,7380.0,79.58m（登記）,79.58,79.58,49.84m（登記）,49.84,49.84,3LDK,3LDK,3LDK,相談,2001年2月,,木造3階建,東京都世田谷区代田１,小田急線,下北沢,,,14,https://suumo.jp/chukoikkodate/tokyo/sc_setagaya/nc_71169306/,35.6529684,139.6624281
世田谷区下馬四丁目,中古一戸建て,7490万円,7490,7490.0,101.49m（30.70坪）（登記）,101.49,101.49,62.73m（18.97坪）（登記）,62.73,62.73,4LDK,4LDK,4LDK,相談,1999年11月,,木造2階地下1階建一部RC,東京都世田谷区下馬４,東急東横線,学芸大学,,,14,https://suumo.jp/chukoikkodate/tokyo/sc_setagaya/nc_71562116/,35.635543,139.679014
南烏山　中古戸建,中古一戸建て,7580万円,7580,7580.0,99.42m（登記）,99.42,99.42,66.59m,66.59,66.59,2LDK+2S（納戸）,2LDK+2S,2LDK+2S,相談,2014年9月,,木造3階建,東京都世田谷区南烏山２,京王線,芦花公園,,,7,https://suumo.jp/chukoikkodate/tokyo/sc_setagaya/nc_71366849/,35.6682212,139.6063258
宮坂3丁目　中古戸建,中古一戸建て,7650万円,7650,7650.0,59.48m（登記）,59.48,59.48,66.33m（登記）,66.33,66.33,4K,4K,4K,相談,1969年1月,,木造2階建,東京都世田谷区宮坂３,小田急線,経堂,,,9,https://suumo.jp/chukoikkodate/tokyo/sc_setagaya/nc_71707517/,35.6548078,139.6356453
世田谷区上用賀5丁目　戸建,中古一戸建て,7680万円,7680,7680.0,92.42m（27.95坪）、うち地下室21.96m,92.42,92.42,59.94m（18.13坪）（登記）,59.94,59.94,3LDK,3LDK,3LDK,相談,1984年4月,,木・鉄筋コンクリート2階地下1階建,東京都世田谷区上用賀５,東急田園都市線,用賀,,,10,https://suumo.jp/chukoikkodate/tokyo/sc_setagaya/nc_70122720/,35.6299366,139.6279953
世田谷区船橋1丁目 戸建,中古一戸建て,7890万円,7890,7890.0,83.02m（25.11坪）,83.02,83.02,51.89m（15.69坪）（登記）,51.89,51.89,3LDK,3LDK,3LDK,相談,2019年11月,,木造3階建,東京都世田谷区船橋１,小田急線,千歳船橋,,,8,https://suumo.jp/chukoikkodate/tokyo/sc_setagaya/nc_71589436/,35.6494773,139.6209837
世田谷区三軒茶屋2丁目中古戸建,中古一戸建て,7980万円,7980,7980.0,60.25m（登記）,60.25,60.25,46.18m（登記）,46.18,46.18,2LDK,2LDK,2LDK,相談,2017年9月,,木造3階建,東京都世田谷区三軒茶屋２,東急田園都市線,三軒茶屋,,,10,https://suumo.jp/chukoikkodate/tokyo/sc_setagaya/nc_71524737/,35.6413753,139.6649795
南西向きLDK約１７．６帖・陽あたり通風の良い住宅,中古一戸建て,8180万円,8180,8180.0,91.11m（実測）、うち１階車庫10.71m,91.11,91.11,52.28m（登記）,52.28,52.28,2LDK+S（納戸）,2LDK+S,2LDK+S,相談,2008年1月,,木造3階建,東京都世田谷区上用賀１,東急田園都市線,用賀,,,10,https://suumo.jp/chukoikkodate/tokyo/sc_setagaya/nc_71727397/,35.6330159,139.6356453
◆世田谷区赤堤2丁目　中古戸建◆,中古一戸建て,8280万円,8280,8280.0,78.65m,78.65,78.65,82.58m,82.58,82.58,1LDK+2S（納戸）,1LDK+2S,1LDK+2S,相談,2017年10月,,木造2階建(制震住宅),東京都世田谷区赤堤２,小田急線,豪徳寺,,,8,https://suumo.jp/chukoikkodate/tokyo/sc_setagaya/nc_71698138/,35.6577672,139.6458469
奥沢５（奥沢駅） 8480万円,中古一戸建て,8480万円,8480,8480.0,76.99m,76.99,76.99,53.29m,53.29,53.29,2LDK,2LDK,2LDK,相談,1998年5月,,木造3階建,東京都世田谷区奥沢５,東急目黒線,奥沢,,,4,https://suumo.jp/chukoikkodate/tokyo/sc_setagaya/nc_71724755/,35.6047273,139.6694446
2/10価格変更【２０１９年築４LDK戸建＋カースペース（車種制限あり）】南東角地♪,中古一戸建て,8680万円,8680,8680.0,97.28m（29.42坪）（登記）,97.28,97.28,67.47m（20.40坪）（登記）,67.47,67.47,4LDK,4LDK,4LDK,相談,2019年4月,,木造3階建,東京都世田谷区上祖師谷１,京王線,千歳烏山,,,2,https://suumo.jp/chukoikkodate/tokyo/sc_setagaya/nc_71650870/,35.6645064,139.5999539
【築浅戸建】世田谷区豪徳寺１,中古一戸建て,8880万円,8880,8880.0,80.48m（24.34坪）,80.48,80.48,54.54m（16.49坪）,54.54,54.54,2LDK+S（納戸）,2LDK+S,2LDK+S,相談,2018年6月,,木造3階建,東京都世田谷区豪徳寺１,小田急線,豪徳寺,,,2,https://suumo.jp/chukoikkodate/tokyo/sc_setagaya/nc_71523916/,35.6530591,139.6483975
☆【土日祝日弊社で現地販売開催中】早くも最終1棟☆ 世田谷区北烏山4丁目　新築戸建,新築一戸建て,7380万円,7380,7380.0,80.19m（24.25坪）,80.19,80.19,82.77m（25.03坪）,82.77,82.77,1LDK+2S（納戸）,1LDK+2S,1LDK+2S,2023年3月末予定,2023年2月中旬予定,,木造2階建,東京都世田谷区北烏山４-40-11,京王井の頭線,久我山,,,12,https://suumo.jp/ikkodate/tokyo/sc_setagaya/nc_71736446/,35.6817356,139.5951157
Luxsis 八幡山 Vol.15,新築一戸建て,7590万円(税込),7590,7590.0,93.63m,93.63,93.63,80.65m,80.65,80.65,1LDK+2S（納戸）,1LDK+2S,1LDK+2S,即引渡可,2022年7月末,,木造スレート葺　2階建て（制震住宅),東京都世田谷区八幡山１,京王線,八幡山,,,15,https://suumo.jp/ikkodate/tokyo/sc_setagaya/nc_97760880/,35.6617736,139.6216211
♪予約制内覧会開催中♪◆船橋の新築戸建・残り３棟◆,新築一戸建て,7880万円～8680万円,7880,8680.0,98.5m～123.37m,98.5,123.37,71.86m～84.85m,71.86,84.85,4LDK,4LDK,4LDK,即引渡可,2022年11月下旬,,木造3階建,東京都世田谷区船橋５,小田急線,経堂,,,17,https://suumo.jp/ikkodate/tokyo/sc_setagaya/nc_71359999/,35.6558011,139.6267204
◆最終一棟◆　鎌田４丁目　新築分譲住宅,新築一戸建て,7880万円,7880,7880.0,91.5m（27.67坪）（実測）,91.5,91.5,103.15m（31.20坪）（登記）,103.15,103.15,4LDK,4LDK,4LDK,相談,2023年7月下旬予定,,木造2階建（軸組パネル）,東京都世田谷区鎌田４,東急田園都市線,二子玉川,,,29,https://suumo.jp/ikkodate/tokyo/sc_setagaya/nc_71560403/,35.62275020000001,139.6101492
世田谷区北烏山１丁目　全２棟　新築分譲住宅,新築一戸建て,7980万円,7980,7980.0,98.54m,98.54,98.54,101.32m,101.32,101.32,4LDK,4LDK,4LDK,2023年10月予定,2023年9月予定,,木造2階建,東京都世田谷区北烏山１,京王井の頭線,富士見ヶ丘,,,12,https://suumo.jp/ikkodate/tokyo/sc_setagaya/nc_71241621/,35.675415,139.6056885
ディアナハウス豪徳寺2丁目,新築一戸建て,7980万円・9280万円,7980,9280.0,112.63m・119.83m,112.63,119.83,80m・84.11m,80.0,84.11,2LDK+S（納戸）・3LDK,2LDK+S,3LDK,2023年3月下旬予定,2023年3月中旬予定,,木造・2階建,東京都世田谷区豪徳寺２-7-17,小田急線,豪徳寺,,,13,https://suumo.jp/ikkodate/tokyo/sc_setagaya/nc_70922584/,35.6466502,139.648816
世田谷区桜上水1丁目　全6区画　新築戸建,新築一戸建て,7990万円,7990,7990.0,88.59m・89.01m,88.59,89.01,84.05m,84.05,84.05,1LDK+2S（納戸）・2LDK+S（納戸）,1LDK+2S,2LDK+S,2023年4月予定,2023年3月下旬予定,,-,東京都世田谷区桜上水１,小田急線,経堂,,,13,https://suumo.jp/ikkodate/tokyo/sc_setagaya/nc_70920600/,35.6578547,139.6318202
～世田谷区大蔵1丁目　砧公園～　全1棟,新築一戸建て,7990万円,7990,7990.0,91.49m,91.49,91.49,83.83m,83.83,83.83,4LDK,4LDK,4LDK,即引渡可,2023年2月,,木造2階建,東京都世田谷区大蔵１,小田急線,祖師ヶ谷大蔵,,,20,https://suumo.jp/ikkodate/tokyo/sc_setagaya/nc_71084001/,35.634252,139.6216211
世田谷区粕谷３丁目 新築分譲住宅 全１棟 千歳烏山　広々３LDK　カースペース,新築一戸建て,8430万円,8430,8430.0,88.29m,88.29,88.29,90.45m,90.45,90.45,3LDK,3LDK,3LDK,2023年3月末予定,2023年3月末予定,,木造2階建（軸組工法）,東京都世田谷区粕谷３,京王線,千歳烏山,,,12,https://suumo.jp/ikkodate/tokyo/sc_setagaya/nc_71367611/,35.6608294,139.6050513
世田谷区大原1丁目　新築分譲住宅　全1棟,新築一戸建て,8480万円,8480,8480.0,106.83m（実測）,106.83,106.83,72.07m（実測）,72.07,72.07,2LDK+2S（納戸）,2LDK+2S,2LDK+2S,即引渡可,2022年12月下旬,,木造3階建,東京都世田谷区大原１,京王線,笹塚,,,8,https://suumo.jp/ikkodate/tokyo/sc_setagaya/nc_71483825/,35.6692227,139.6643416
松陰神社前の家　　最終１棟,新築一戸建て,8480万円,8480,8480.0,100.64m（実測）,100.64,100.64,52.52m（実測）,52.52,52.52,3LDK,3LDK,3LDK,相談,2022年12月初旬,,木造3階建,東京都世田谷区若林４,東急世田谷線,松陰神社前,,,2,https://suumo.jp/ikkodate/tokyo/sc_setagaya/nc_71291798/,35.6458146,139.6560501
～本日のご案内も対応可能です～建物完成済！室内ゆっくりとご覧になっていただけます♪,新築一戸建て,8480万円,8480,8480.0,100.64m（30.44坪）（実測）,100.64,100.64,52.52m（15.88坪）（登記）,52.52,52.52,3LDK,3LDK,3LDK,即引渡可,2022年11月,,木造3階建,東京都世田谷区若林４,東急世田谷線,松陰神社前,,,2,https://suumo.jp/ikkodate/tokyo/sc_setagaya/nc_71224386/,35.6458146,139.6560501
世田谷区池尻３丁目　新築戸建　全３棟,新築一戸建て,8480万円,8480,8480.0,115.49m・127.03m（34.93坪・38.42坪）,115.49,127.03,78.06m・82.72m（23.61坪・25.02坪）,78.06,82.72,2LDK+2S（納戸）・3LDK+S（納戸）,2LDK+2S,3LDK+S,相談,2023年5月予定,,木造3階建,東京都世田谷区池尻３,東急田園都市線,池尻大橋,,,2,https://suumo.jp/ikkodate/tokyo/sc_setagaya/nc_71389526/,35.6501422,139.679652
～世田谷区豪徳寺1丁目～　限定1棟,新築一戸建て,8580万円,8580,8580.0,93.03m,93.03,93.03,79.48m,79.48,79.48,2LDK+S（納戸）,2LDK+S,2LDK+S,即引渡可,2022年9月,,木造2階建,東京都世田谷区豪徳寺１,小田急線,豪徳寺,,,3,https://suumo.jp/ikkodate/tokyo/sc_setagaya/nc_70180110/,35.6530591,139.6483975
♪予約制案内会開催中♪◆豪徳寺駅３分・新築戸建◆,新築一戸建て,8580万円,8580,8580.0,93.03m、うち１階車庫6.62m,93.03,93.03,79.48m（実測）,79.48,79.48,2LDK+S（納戸）,2LDK+S,2LDK+S,即引渡可,2022年10月,,木造2階建,東京都世田谷区豪徳寺１,小田急線,豪徳寺,,,3,https://suumo.jp/ikkodate/tokyo/sc_setagaya/nc_71281703/,35.6530591,139.6483975
～世田谷区経堂3丁目～　最終2棟,未入居,9290万円・9390万円,9290,9390.0,121.68m,121.68,121.68,77.49m・77.71m,77.49,77.71,2LDK+2S（納戸）,2LDK+2S,2LDK+2S,2023年2月,2022年1月,,木造2階建、木造3階建,東京都世田谷区経堂３,小田急線,千歳船橋,,,10,https://suumo.jp/ikkodate/tokyo/sc_setagaya/nc_70947611/,35.652241,139.6292703
♪予約制内覧会開催中♪上北沢　新築戸建　全５棟◆,新築一戸建て,9300万円～1億1500万円,9300,11500.0,101.3m～119.94m（実測）,101.3,119.94,120.02m～129.04m（実測）,120.02,129.04,4LDK,4LDK,4LDK,2023年3月上旬予定,2023年2月末予定,,木造2階建,東京都世田谷区上北沢３,京王線,上北沢,,,6,https://suumo.jp/ikkodate/tokyo/sc_setagaya/nc_71565366/,35.6673867,139.6241707
～世田谷区東玉川2丁目　21‐1期～　最終1棟,新築一戸建て,9380万円,9380,9380.0,95.84m,95.84,95.84,112.33m,112.33,112.33,1LDK+2S（納戸）,1LDK+2S,1LDK+2S,即引渡可,2022年5月中旬,,木造2階建,東京都世田谷区東玉川２,東急東横線,田園調布,,,8,https://suumo.jp/ikkodate/tokyo/sc_setagaya/nc_98414301/,35.5967646,139.6739102
東玉川２（田園調布駅） 9380万円,新築一戸建て,9380万円,9380,9380.0,112.33m,112.33,112.33,112.33m,112.33,112.33,1LDK+2S（納戸）,1LDK+2S,1LDK+2S,相談,2022年5月,,木造2階建,東京都世田谷区東玉川２,東急東横線,田園調布,,,8,https://suumo.jp/ikkodate/tokyo/sc_setagaya/nc_71514392/,35.5967646,139.6739102
世田谷区尾山台２丁目　新築戸建,新築一戸建て,9480万円～9980万円,9480,9980.0,94.4m・94.44m,94.4,94.44,119.97m～119.99m,119.97,119.99,3LDK,3LDK,3LDK,即引渡可,2022年10月,,木造2階建て,東京都世田谷区尾山台２,東急大井町線,尾山台,,,13,https://suumo.jp/ikkodate/tokyo/sc_setagaya/nc_71523818/,35.6011871,139.6534992
上北沢１丁目　戸建,中古一戸建て,8980万円,8980,8980.0,95.98m（29.03坪）（登記）,95.98,95.98,100.04m（30.26坪）（登記）,100.04,100.04,3LDK+S（納戸）,3LDK+S,3LDK+S,即引渡可,2001年7月,,木造2階建（在来）,東京都世田谷区上北沢１,京王線,桜上水,,,13,https://suumo.jp/chukoikkodate/tokyo/sc_setagaya/nc_71103098/,35.6621675,139.6254456
経堂４丁目戸建,中古一戸建て,9000万円,9000,9000.0,120.75m（36.52坪）（登記）,120.75,120.75,100.32m（30.34坪）（登記）,100.32,100.32,2LDK+S（納戸）,2LDK+S,2LDK+S,2023年5月予定,2003年3月,,木造3階建,東京都世田谷区経堂４,小田急線,千歳船橋,,,5,https://suumo.jp/chukoikkodate/tokyo/sc_setagaya/nc_71464493/,35.6489207,139.6267204
グローイングスクエア世田谷船橋II（世田谷区船橋3丁目　戸建）,中古一戸建て,9180万円,9180,9180.0,92.94m（28.11坪）,92.94,92.94,100.21m（30.31坪）（登記）,100.21,100.21,2LDK,2LDK,2LDK,相談,2018年8月,,木造2階建,東京都世田谷区船橋３,小田急線,千歳船橋,,,8,https://suumo.jp/chukoikkodate/tokyo/sc_setagaya/nc_71226226/,35.6524809,139.6241707
経堂一丁目中古店舗付住宅,中古一戸建て,9200万円,9200,9200.0,53.7m,53.7,53.7,36.64m（登記）,36.64,36.64,2K,2K,2K,2023年2月,1977年9月,,鉄骨2階建,東京都世田谷区経堂１,小田急線,経堂,,,2,https://suumo.jp/chukoikkodate/tokyo/sc_setagaya/nc_70398304/,35.6490736,139.6356453
南烏山５（千歳烏山駅） 9280万円,中古一戸建て,9280万円,9280,9280.0,86.11m（26.04坪）（登記）,86.11,86.11,113.87m（34.44坪）（登記）,113.87,113.87,3LDK,3LDK,3LDK,即引渡可,2014年10月,,木造2階建,東京都世田谷区南烏山５,京王線,千歳烏山,,,3,https://suumo.jp/chukoikkodate/tokyo/sc_setagaya/nc_71146915/,35.6666801,139.6025025
岡本３（二子玉川駅） 9590万円,中古一戸建て,9590万円,9590,9590.0,108.05m（登記）,108.05,108.05,172.63m（登記）,172.63,172.63,4LDK,4LDK,4LDK,相談,2016年4月,,木造2階建,東京都世田谷区岡本３,東急田園都市線,二子玉川,,,24,https://suumo.jp/chukoikkodate/tokyo/sc_setagaya/nc_71345689/,35.6259506,139.6152476
岡本３（二子玉川駅） 9590万円,中古一戸建て,9590万円,9590,9590.0,108.05m,108.05,108.05,172.63m,172.63,172.63,4LDK,4LDK,4LDK,相談,2016年4月,,木造2階建,東京都世田谷区岡本３,東急田園都市線,二子玉川,,,24,https://suumo.jp/chukoikkodate/tokyo/sc_setagaya/nc_71242929/,35.6259506,139.6152476
岡本３丁目戸建,中古一戸建て,9590万円,9590,9590.0,108.05m（登記）,108.05,108.05,172.63m（登記）,172.63,172.63,4LDK,4LDK,4LDK,即引渡可,2016年4月,,木造2階建,東京都世田谷区岡本３,東急大井町線,二子玉川,,,25,https://suumo.jp/chukoikkodate/tokyo/sc_setagaya/nc_71284586/,35.6259506,139.6152476
世田谷区奥沢1丁目中古戸建て,中古一戸建て,9980万円,9980,9980.0,91.04m（27.53坪）,91.04,91.04,106.43m（32.19坪）,106.43,106.43,2LDK+S（納戸）,2LDK+S,2LDK+S,相談,2015年4月,,木造2階建,東京都世田谷区奥沢１,東急大井町線,緑が丘,,,9,https://suumo.jp/chukoikkodate/tokyo/sc_setagaya/nc_71386367/,35.60091600000001,139.6771
♪予約制案内会開催中♪◆経堂駅9分ルーフバルコニーの邸◆,中古一戸建て,9980万円,9980,9980.0,90.67m（登記）,90.67,90.67,95m,95.0,95.0,3LDK,3LDK,3LDK,相談,2017年7月,,木造2階建,東京都世田谷区宮坂３,小田急線,経堂,,,9,https://suumo.jp/chukoikkodate/tokyo/sc_setagaya/nc_71016010/,35.6548078,139.6356453
世田谷区三宿2丁目　中古戸建,中古一戸建て,1億180万円,10180,10180.0,87.67m（登記）,87.67,87.67,50.02m（登記）,50.02,50.02,2LDK,2LDK,2LDK,相談,2019年7月,,木造3階建,東京都世田谷区三宿２,東急田園都市線,池尻大橋,,,13,https://suumo.jp/chukoikkodate/tokyo/sc_setagaya/nc_71758754/,35.6523625,139.6751861
【世田谷区桜２】５DK　土地約４７坪　閑静な住宅街,中古一戸建て,1億800万円,10800,10800.0,120.05m（36.31坪）,120.05,120.05,157.85m（47.74坪）,157.85,157.85,5LDK,5LDK,5LDK,相談,1977年4月,,木造2階建,東京都世田谷区桜２,小田急線,経堂,,,10,https://suumo.jp/chukoikkodate/tokyo/sc_setagaya/nc_71757270/,35.6438523,139.6369204
【予約制内覧会実施♪築浅戸建】世田谷区奥沢７,中古一戸建て,1億1500万円,11500,11500.0,93.35m（28.23坪）,93.35,93.35,97.71m（29.55坪）,97.71,97.71,3LDK,3LDK,3LDK,即引渡可,2020年8月,,木造2階建,東京都世田谷区奥沢７,東急大井町線,九品仏,,,8,https://suumo.jp/chukoikkodate/tokyo/sc_setagaya/nc_71763992/,35.607707,139.6611525
成城２（成城学園前駅） 1億1800万円,中古一戸建て,1億1800万円,11800,11800.0,99.28m,99.28,99.28,128.66m,128.66,128.66,4LDK,4LDK,4LDK,相談,2003年6月,,軽量鉄骨2階建,東京都世田谷区成城２,小田急線,成城学園前,,,7,https://suumo.jp/chukoikkodate/tokyo/sc_setagaya/nc_70607700/,35.6389679,139.600591
成城２（成城学園前駅） 1億1800万円,中古一戸建て,1億1800万円,11800,11800.0,99.28m（登記）,99.28,99.28,128.66m（登記）,128.66,128.66,4LDK,4LDK,4LDK,相談,2003年6月,,木造2階建,東京都世田谷区成城２,小田急線,成城学園前,,,7,https://suumo.jp/chukoikkodate/tokyo/sc_setagaya/nc_70585127/,35.6389679,139.600591
成城２（成城学園前駅） 1億1800万円,中古一戸建て,1億1800万円,11800,11800.0,99.28m（30.03坪）（登記）,99.28,99.28,128.66m（38.91坪）（登記）、高圧線下：27.5m含,128.66,128.66,4LDK,4LDK,4LDK,相談,2003年3月,,軽量鉄骨2階建,東京都世田谷区成城２,小田急線,成城学園前,,,7,https://suumo.jp/chukoikkodate/tokyo/sc_setagaya/nc_70903814/,35.6389679,139.600591
世田谷区等々力8丁目　中古戸建,中古一戸建て,1億1900万円,11900,11900.0,88.02m（登記）,88.02,88.02,91.52m（登記）,91.52,91.52,2LDK,2LDK,2LDK,即引渡可,2014年7月,,木造2階建,東京都世田谷区等々力８-7-18,東急大井町線,等々力,,,9,https://suumo.jp/chukoikkodate/tokyo/sc_setagaya/nc_71622047/,35.6134972,139.6492644
世田谷区経堂2丁目　戸建(ミサワホーム施工),中古一戸建て,1億2000万円,12000,12000.0,120.07m（登記）,120.07,120.07,117.59m（登記）,117.59,117.59,5LDK,5LDK,5LDK,相談,2009年12月,,木造2階建（パネル工法）,東京都世田谷区経堂２,小田急線,経堂,,,11,https://suumo.jp/chukoikkodate/tokyo/sc_setagaya/nc_71431503/,35.6526343,139.6330952
土日現地販売会開催！世田谷区深沢の緑豊かな閑静な住宅街。ゆとりの１２０m,中古一戸建て,1億2800万円,12800,12800.0,121.09m,121.09,121.09,128.58m,128.58,128.58,3LDK,3LDK,3LDK,相談,2002年11月,,木造2階建,東京都世田谷区深沢１,東急東横線,都立大学,,,17,https://suumo.jp/chukoikkodate/tokyo/sc_setagaya/nc_71504351/,35.6177182,139.6617903
限定物件×大幅価格Down♪広々【SKY ＴＥＲＲＡＣＥ】付き4SLDK美邸宅の誕生,中古一戸建て,1億2800万円,12800,12800.0,109.15m（登記）,109.15,109.15,97.95m（登記）,97.95,97.95,4LDK+S（納戸）,4LDK+S,4LDK+S,即引渡可,2006年3月,,木造2階建,東京都世田谷区世田谷３,東急世田谷線,世田谷,,,5,https://suumo.jp/chukoikkodate/tokyo/sc_setagaya/nc_71337554/,35.6443962,139.6496729
岡本３丁目　新築分譲戸建て,新築一戸建て,9480万円,9480,9480.0,89.03m（登記）,89.03,89.03,100.55m（登記）,100.55,100.55,3LDK,3LDK,3LDK,即引渡可,2023年2月,,木造2階建,東京都世田谷区岡本３,東急大井町線,二子玉川,岡本３丁目,15,2,https://suumo.jp/ikkodate/tokyo/sc_setagaya/nc_70826242/,35.6259506,139.6152476
尾山台２（尾山台駅） 9480万円,新築一戸建て,9480万円,9480,9480.0,94.4m,94.4,94.4,119.98m,119.98,119.98,3LDK,3LDK,3LDK,相談,2022年10月,,木造2階建,東京都世田谷区尾山台２,東急大井町線,尾山台,,,13,https://suumo.jp/ikkodate/tokyo/sc_setagaya/nc_71268308/,35.6011871,139.6534992
全棟大幅価格変更！◆ガルボシティー世田谷区尾山台２丁目◆【弊社設計・施行販売】,新築一戸建て,9480万円～9980万円,9480,9980.0,94.4m～94.44m,94.4,94.44,119.97m～119.99m,119.97,119.99,3LDK,3LDK,3LDK,即引渡可,2022年11月,,木造2階建,東京都世田谷区尾山台２-4番17号,東急大井町線,尾山台,,,13,https://suumo.jp/ikkodate/tokyo/sc_setagaya/nc_98251505/,35.5999783,139.6514963
ガルボシティー世田谷区尾山台2丁目,新築一戸建て,9480万円～9980万円,9480,9980.0,94.4m～94.44m,94.4,94.44,119.97m～119.99m,119.97,119.99,3LDK,3LDK,3LDK,2023年3月予定,2022年11月,,木造　地上2階,東京都世田谷区尾山台２,東急大井町線,尾山台,,,13,https://suumo.jp/ikkodate/tokyo/sc_setagaya/nc_70696551/,35.6011871,139.6534992
～ハートフルタウン世田谷区経堂～全4棟！2棟ご成約！,新築一戸建て,9490万円・9590万円,9490,9590.0,121.68m（実測）,121.68,121.68,77.49m・77.71m（実測）,77.49,77.71,2LDK+2S（納戸）,2LDK+2S,2LDK+2S,2023年3月上旬予定,2023年2月下旬予定,,木造サイディング貼りスレート葺2階建て(A号棟、B号棟)　3階建て(C号棟、Ｄ号棟),東京都世田谷区経堂３-17-5,小田急線,千歳船橋,,,10,https://suumo.jp/ikkodate/tokyo/sc_setagaya/nc_71400499/,35.6514385,139.6278559
尾山台２（尾山台駅） 9880万円,新築一戸建て,9880万円,9880,9880.0,94.44m（実測）,94.44,94.44,119.97m（実測）,119.97,119.97,3LDK,3LDK,3LDK,相談,2022年10月,,木造2階建,東京都世田谷区尾山台２,東急大井町線,尾山台,,,13,https://suumo.jp/ikkodate/tokyo/sc_setagaya/nc_71267863/,35.6011871,139.6534992
◆メルディア東玉川2丁目No.4◆,新築一戸建て,9980万円,9980,9980.0,103.52m,103.52,103.52,95.77m,95.77,95.77,2LDK+2S（納戸）,2LDK+2S,2LDK+2S,2023年5月予定,2023年4月予定,,木造2階建（軸組工法）,東京都世田谷区東玉川２,東急池上線,雪が谷大塚,,,9,https://suumo.jp/ikkodate/tokyo/sc_setagaya/nc_71519022/,35.5967646,139.6739102
尾山台２（尾山台駅） 9980万円,新築一戸建て,9980万円,9980,9980.0,94.4m,94.4,94.4,119.99m,119.99,119.99,3LDK,3LDK,3LDK,相談,2022年10月,,木造2階建,東京都世田谷区尾山台２,東急大井町線,尾山台,,,13,https://suumo.jp/ikkodate/tokyo/sc_setagaya/nc_71268325/,35.6011871,139.6534992
世田谷区下馬３丁目 新築戸建1棟,新築一戸建て,9980万円,9980,9980.0,112.48m、うち１階車庫10.97m,112.48,112.48,64.62m,64.62,64.62,2LDK+S（納戸）,2LDK+S,2LDK+S,2023年5月予定,2023年5月,,木造3階建,東京都世田谷区下馬３,東急田園都市線,三軒茶屋,,,15,https://suumo.jp/ikkodate/tokyo/sc_setagaya/nc_71266195/,35.6357867,139.6739102
東玉川２（田園調布駅） 9980万円,新築一戸建て,9980万円,9980,9980.0,92.08m,92.08,92.08,92.89m,92.89,92.89,3LDK,3LDK,3LDK,相談,2023年12月,,木造2階建,東京都世田谷区東玉川２,東急東横線,田園調布,,,13,https://suumo.jp/ikkodate/tokyo/sc_setagaya/nc_71301311/,35.5967646,139.6739102
Luxsis 千歳烏山 Vol.20,新築一戸建て,9990万円（税込）,9990,9990.0,140.01m,140.01,140.01,80.25m,80.25,80.25,3LDK+2S（納戸）,3LDK+2S,3LDK+2S,2023年3月末予定,2023年1月末,,木造3階建（耐震＋制震住宅）,東京都世田谷区南烏山３,京王線,千歳烏山,,,13,https://suumo.jp/ikkodate/tokyo/sc_setagaya/nc_70228943/,35.67166,139.6063258
アールギャラリー世田谷区代田の家,新築一戸建て,1億480万円,10480,10480.0,84.48m（登記）,84.48,84.48,84.92m（登記）,84.92,84.92,3LDK+S（納戸）,3LDK+S,3LDK+S,2023年5月予定,2023年4月予定,,木造2階建（軸組工法）,東京都世田谷区代田３,小田急線,梅ヶ丘,,,4,https://suumo.jp/ikkodate/tokyo/sc_setagaya/nc_71026774/,35.6546742,139.6566879
◆メルディア松原～BALCONIES～◆,新築一戸建て,1億980万円,10980,10980.0,101.17m,101.17,101.17,75.42m,75.42,75.42,2LDK,2LDK,2LDK,2023年8月予定,2023年7月予定,,木造3階建（軸組工法）,東京都世田谷区松原５,京王井の頭線,東松原,,,9,https://suumo.jp/ikkodate/tokyo/sc_setagaya/nc_71375883/,35.6626271,139.6522237
セキュレア世田谷中町4丁目　(分譲住宅)【ダイワハウス】,新築一戸建て,1億1800万円～1億3180万円,11800,13180.0,100.02m～107.32m,100.02,107.32,101.01m～114.82m,101.01,114.82,3LDK～4LDK,3LDK,4LDK,即引渡可,2022年12月,,軽量鉄骨2階建(7戸),東京都世田谷区中町４-58-38他他,東急大井町線,上野毛,,,15,https://suumo.jp/ikkodate/tokyo/sc_setagaya/nc_70808417/,35.6177391,139.6432963
セキュレア世田谷中町４丁目第１期・第２期,新築一戸建て,1億1800万円～1億3180万円,11800,13180.0,100.02m～107.32m（実測）,100.02,107.32,101.01m～114.82m（登記）,101.01,114.82,3LDK～4LDK,3LDK,4LDK,2023年3月末予定,2023年2月末予定,,軽量鉄骨2階建,東京都世田谷区中町４-２,東急大井町線,上野毛,,,15,https://suumo.jp/ikkodate/tokyo/sc_setagaya/nc_71689189/,35.6171233,139.6456874
駒沢２（駒沢大学駅） 1億2045万円,新築一戸建て,1億2045万円,12045,12045.0,94.9m,94.9,94.9,60.47m,60.47,60.47,3LDK,3LDK,3LDK,相談,2023年1月,,木造3階建,東京都世田谷区駒沢２,東急田園都市線,駒沢大学,,,6,https://suumo.jp/ikkodate/tokyo/sc_setagaya/nc_70813665/,35.6348555,139.6573257
瀬田3(用賀駅)12280万円,新築一戸建て,1億2280万円,12280,12280.0,126.85m、うち１階車庫21.73m,126.85,126.85,71.09m（登記）,71.09,71.09,3LDK+S（納戸）,3LDK+S,3LDK+S,相談,2022年12月,,木造3階建,東京都世田谷区瀬田３,東急田園都市線,用賀,,,12,https://suumo.jp/ikkodate/tokyo/sc_setagaya/nc_71517689/,35.6210313,139.6343703
中町４（上野毛駅） 1億2880万円～1億3500万円,新築一戸建て,1億2880万円～1億3500万円,12880,13500.0,100.28m～106.98m（30.33坪～32.36坪）,100.28,106.98,103.52m～107.79m（31.31坪～32.60坪）,103.52,107.79,3LDK～4LDK,3LDK,4LDK,2022年12月下旬,2022年11月末,,軽量鉄骨2階建,東京都世田谷区中町４,東急大井町線,上野毛,,,11,https://suumo.jp/ikkodate/tokyo/sc_setagaya/nc_71029822/,35.6177391,139.6432963
松陰神社前　デザイナーズ新築戸建,新築一戸建て,1億2900万円,12900,12900.0,132.25m（実測）、うち１階車庫6.89m,132.25,132.25,87.45m（登記）,87.45,87.45,3LDK+2S（納戸）,3LDK+2S,3LDK+2S,即引渡可,2022年12月,,木造3階建,東京都世田谷区世田谷４,東急世田谷線,松陰神社前,,,3,https://suumo.jp/ikkodate/tokyo/sc_setagaya/nc_71186297/,35.6454224,139.6522237
♪予約制内覧会開催中♪◆世田谷区大原の新築戸建◆,新築一戸建て,1億3900万円・1億4900万円,13900,14900.0,138.99m・144.27m（実測）,138.99,144.27,108.15m・127.59m（実測）,108.15,127.59,3LDK+S（納戸）・3LDK+2S（納戸）,3LDK+S,3LDK+2S,2023年5月下旬予定,2023年5月予定,,木造3階建,東京都世田谷区大原１,京王線,笹塚,,,8,https://suumo.jp/ikkodate/tokyo/sc_setagaya/nc_71662409/,35.6692227,139.6643416
♪予約制案内会開催中♪◆レーベンプラッツ尾山台HILLS◆,中古一戸建て,1億3800万円,13800,13800.0,108.88m（登記）,108.88,108.88,182.53m（登記）,182.53,182.53,3LDK,3LDK,3LDK,相談,2018年2月,,木造3階建,東京都世田谷区尾山台１,東急大井町線,九品仏,,,9,https://suumo.jp/chukoikkodate/tokyo/sc_setagaya/nc_71504803/,35.5987695,139.6560501
岡本３（用賀駅） 1億5000万円,中古一戸建て,1億5000万円,15000,15000.0,127.68m（38.62坪）（登記）,127.68,127.68,150.86m（45.63坪）（登記）,150.86,150.86,3LDK,3LDK,3LDK,相談,2007年5月,,木造2階建,東京都世田谷区岡本３,東急田園都市線,用賀,,,24,https://suumo.jp/chukoikkodate/tokyo/sc_setagaya/nc_70689180/,35.6259506,139.6152476
成城5丁目　中古戸建,中古一戸建て,1億6980万円,16980,16980.0,98.51m（29.79坪）,98.51,98.51,140.27m（42.43坪）（登記）,140.27,140.27,3LDK,3LDK,3LDK,相談,2014年8月,,木造2階建,東京都世田谷区成城５,小田急線,成城学園前,,,6,https://suumo.jp/chukoikkodate/tokyo/sc_setagaya/nc_71226228/,35.6418163,139.5948569
東急ホームズ・Millcreek／深沢6丁目／駒沢公園／桜新町／自由が丘／二子玉川,中古一戸建て,1億6980万円,16980,16980.0,133.83m（40.48坪）（登記）,133.83,133.83,155.38m（47.00坪）（登記）,155.38,155.38,3LDK+S（納戸）,3LDK+S,3LDK+S,即引渡可,2012年3月,,木造2階建,東京都世田谷区深沢６,東急田園都市線,桜新町,,,14,https://suumo.jp/chukoikkodate/tokyo/sc_setagaya/nc_71459880/,35.6236249,139.6522237
世田谷区代田２丁目　戸建,中古一戸建て,1億9500万円,19500,19500.0,196.22m、うち地下車庫41.73m,196.22,196.22,131.28m（登記）,131.28,131.28,2LDK,2LDK,2LDK,2023年5月予定,2003年1月,,RC3階地下1階建,東京都世田谷区代田２,小田急線,下北沢,,,11,https://suumo.jp/chukoikkodate/tokyo/sc_setagaya/nc_98113417/,35.6567266,139.6617903
世田谷区野沢3丁目　中古戸建,中古一戸建て,1億9800万円,19800,19800.0,123.42m（37.33坪）（登記）,123.42,123.42,106.28m（32.14坪）（登記）,106.28,106.28,3LDK,3LDK,3LDK,相談,2017年9月,,鉄骨3階建,東京都世田谷区野沢３,東急東横線,学芸大学,,,11,https://suumo.jp/chukoikkodate/tokyo/sc_setagaya/nc_71357284/,35.630562,139.6751861
成城～白亜の邸宅～,中古一戸建て,2億1800万円,21800,21800.0,199.68m（登記）、うち地下車庫36.56m,199.68,199.68,242.38m（登記）,242.38,242.38,3LDK+S（納戸）,3LDK+S,3LDK+S,相談,2011年12月,,木造2階地下1階建一部RC,東京都世田谷区成城４,小田急線,成城学園前,,,10,https://suumo.jp/chukoikkodate/tokyo/sc_setagaya/nc_71148883/,35.6440312,139.5903973
世田谷区駒沢5丁目中古戸建,中古一戸建て,2億3000万円,23000,23000.0,258.75m（78.27坪）（登記）、うち地下室90m,258.75,258.75,168.81m（51.06坪）（登記）,168.81,168.81,2LDK+S（納戸）,2LDK+S,2LDK+S,2023年4月予定,1972年6月,,鉄骨2階地下1階建,東京都世田谷区駒沢５,東急田園都市線,駒沢大学,,,16,https://suumo.jp/chukoikkodate/tokyo/sc_setagaya/nc_70806891/,35.6233819,139.6573257
大手町まで一本で行ける『三軒茶屋』の大型３SLDKの築浅戸建てです。,中古一戸建て,2億7800万円,27800,27800.0,211.78m（登記）,211.78,211.78,121.05m（登記）,121.05,121.05,3LDK+S（納戸）,3LDK+S,3LDK+S,相談,2021年9月,,木造3階建,東京都世田谷区上馬１,東急田園都市線,三軒茶屋,,,9,https://suumo.jp/chukoikkodate/tokyo/sc_setagaya/nc_71489214/,35.6383248,139.6688067
深沢三丁目邸宅～拘りの詰まった注文住宅～,中古一戸建て,2億8000万円,28000,28000.0,184.75m,184.75,184.75,293.06m（登記）,293.06,293.06,5LDK,5LDK,5LDK,即引渡可,2006年9月,,木造2階建,東京都世田谷区深沢３,東急大井町線,尾山台,,,15,https://suumo.jp/chukoikkodate/tokyo/sc_setagaya/nc_71398151/,35.6170098,139.6586012
世田谷区深沢3丁目 一戸建て,中古一戸建て,2億8000万円,28000,28000.0,184.75m（登記）,184.75,184.75,293.06m（登記）,293.06,293.06,5LDK,5LDK,5LDK,相談,2006年9月,,木造2階建,東京都世田谷区深沢３,東急大井町線,尾山台,,,14,https://suumo.jp/chukoikkodate/tokyo/sc_setagaya/nc_71670078/,35.6170098,139.6586012
下馬4丁目　土地・建物面積共に70坪超えの大型戸建て,中古一戸建て,2億9800万円,29800,29800.0,241.73m（登記）,241.73,241.73,245.06m（登記）,245.06,245.06,7LDK+S（納戸）,7LDK+S,7LDK+S,相談,2007年10月,,軽量鉄骨3階建,東京都世田谷区下馬４,東急東横線,学芸大学,,,15,https://suumo.jp/chukoikkodate/tokyo/sc_setagaya/nc_71452029/,35.635543,139.679014
成城6丁目ビル,中古一戸建て,3億1000万円,31000,31000.0,222.7m（登記）,222.7,222.7,66.12m（登記）,66.12,66.12,ワンルーム,ワンルーム,ワンルーム,相談,2004年6月,,鉄骨4階建,東京都世田谷区成城６,小田急線,成城学園前,,,2,https://suumo.jp/chukoikkodate/tokyo/sc_setagaya/nc_71730441/,35.6435543,139.600591
世田谷区砧2丁目 戸建,中古一戸建て,3億3800万円,33800,33800.0,398.44m（120.52坪）（登記）,398.44,398.44,320.45m（96.93坪）（登記）,320.45,320.45,2LDK,2LDK,2LDK,相談,2009年10月,,木・RC造2階地下1階建,東京都世田谷区砧２,小田急線,祖師ヶ谷大蔵,,,12,https://suumo.jp/chukoikkodate/tokyo/sc_setagaya/nc_70538923/,35.6430334,139.6177969
世田谷区瀬田4丁目35-18　水澤工務店施工  リノベーション中古戸建,中古一戸建て,3億7777万円,37777,37777.0,252.54m（登記）、うち地下車庫42.07m,252.54,252.54,286.72m（実測）,286.72,286.72,4LDK,4LDK,4LDK,即引渡可,1999年10月,,RC2階地下1階建,東京都世田谷区瀬田４-35-18,東急田園都市線,用賀,,,12,https://suumo.jp/chukoikkodate/tokyo/sc_setagaya/nc_70903177/,35.6218753,139.625824
鎌田２（二子玉川駅） 6200万円,中古一戸建て,6200万円,6200,6200.0,81m,81.0,81.0,94.11m,94.11,94.11,2LDK+S（納戸）,2LDK+S,2LDK+S,相談,2020年4月,,木造　地上2階,東京都世田谷区鎌田２,東急大井町線,二子玉川,,,24,https://suumo.jp/chukoikkodate/tokyo/sc_setagaya/nc_71422881/,35.6186757,139.6114238
八幡山３（八幡山駅） 6280万円,中古一戸建て,6280万円,6280,6280.0,95.98m（実測）,95.98,95.98,85.02m（登記）,85.02,85.02,3LDK+S（納戸）,3LDK+S,3LDK+S,相談,2002年6月,,木造2階地下1階建一部RC,東京都世田谷区八幡山３,京王線,八幡山,,,11,https://suumo.jp/chukoikkodate/tokyo/sc_setagaya/nc_70526222/,35.6657684,139.6158849
北烏山５（千歳烏山駅） 6480万円,中古一戸建て,6480万円,6480,6480.0,95.44m,95.44,95.44,83.96m,83.96,83.96,3LDK,3LDK,3LDK,相談,2016年11月末,,木造3階建（ツーバイフォー工法）（準耐火構造）,東京都世田谷区北烏山５,京王線,千歳烏山,,,15,https://suumo.jp/chukoikkodate/tokyo/sc_setagaya/nc_70841567/,35.6773515,139.5948569
東玉川１（奥沢駅） 6680万円,中古一戸建て,6680万円,6680,6680.0,73.79m（登記）、うち地下室24.13m、１階車庫6.75m,73.79,73.79,53.32m（登記）,53.32,53.32,1LDK+S（納戸）,1LDK+S,1LDK+S,相談,2003年7月,,木造2階地下1階建,東京都世田谷区東玉川１,東急目黒線,奥沢,,,12,https://suumo.jp/chukoikkodate/tokyo/sc_setagaya/nc_71408258/,35.5971544,139.677738
世田谷区深沢１丁目 新築戸建,新築一戸建て,1億3980万円,13980,13980.0,106.82m、備蓄倉庫部分付住宅（備蓄倉庫部分部分2.1m）,106.82,106.82,105.41m,105.41,105.41,3LDK,3LDK,3LDK,2023年2月,2023年2月,,木造2階建（軸組工法）,東京都世田谷区深沢１,東急東横線,都立大学,,,20,https://suumo.jp/ikkodate/tokyo/sc_setagaya/nc_71684599/,35.6177182,139.6617903
Luxsis 上北沢 Vol.7,新築一戸建て,1億3990万円（税込）,13990,13990.0,192.66m,192.66,192.66,106.63m,106.63,106.63,3LDK+S（納戸）,3LDK+S,3LDK+S,2022年11月末,2022年10月末,,木造3階建（耐震+制震住宅）,東京都世田谷区上北沢３,京王線,上北沢,,,4,https://suumo.jp/ikkodate/tokyo/sc_setagaya/nc_98126031/,35.6673867,139.6241707
SOAVITA学芸大学14,新築一戸建て,1億4480万円,14480,14480.0,121.58m（登記）、うち１階車庫8.59m,121.58,121.58,80.49m（登記）,80.49,80.49,3LDK,3LDK,3LDK,即引渡可,2022年4月,,木造3階建,東京都世田谷区下馬６,東急東横線,学芸大学,,,9,https://suumo.jp/ikkodate/tokyo/sc_setagaya/nc_71742879/,35.6298053,139.679014
Luxsis 用賀　Vol.4,新築一戸建て,1億4590万円(税込),14590,14590.0,166.41m,166.41,166.41,97.82m,97.82,97.82,1LDK+3S（納戸）,1LDK+3S,1LDK+3S,即引渡可,2022年11月末,,木造3階建（耐震住宅+制震住宅）,東京都世田谷区上用賀１,東急田園都市線,用賀,,,11,https://suumo.jp/ikkodate/tokyo/sc_setagaya/nc_70349698/,35.6330159,139.6356453
世田谷区深沢1丁目 新築戸建3棟,新築一戸建て,1億4800万円・1億7800万円,14800,17800.0,145.95m～175.77m,145.95,175.77,143.2m～162.3m,143.2,162.3,2LDK+2S（納戸）～4LDK,2LDK+2S,4LDK,2023年4月下旬予定,2023年4月予定,,木造2階建,東京都世田谷区深沢１,東急東横線,都立大学,,,18,https://suumo.jp/ikkodate/tokyo/sc_setagaya/nc_71569983/,35.6177182,139.6617903
セキュレア世田谷深沢1丁目　(分譲住宅)【ダイワハウス】,新築一戸建て,1億5480万円～1億6480万円,15480,16480.0,107.15m～123.54m,107.15,123.54,109.67m～140.75m,109.67,140.75,4LDK,4LDK,4LDK,2023年3月予定,2023年3月予定,,軽量鉄骨2階建(3戸),東京都世田谷区深沢１-18の一部,東急大井町線,九品仏,,,18,https://suumo.jp/ikkodate/tokyo/sc_setagaya/nc_71460706/,35.61604579999999,139.6622686
【ADCAST】　三軒茶屋　新築戸建,新築一戸建て,1億5980万円,15980,15980.0,135.76m,135.76,135.76,83.51m（実測）,83.51,83.51,4LDK,4LDK,4LDK,即引渡可,2022年12月上旬,,軽量鉄骨3階建,東京都世田谷区野沢１,東急田園都市線,三軒茶屋,,,11,https://suumo.jp/ikkodate/tokyo/sc_setagaya/nc_71356715/,35.6359084,139.6713584
セキュレア三軒茶屋　(分譲住宅)【ダイワハウス】,新築一戸建て,1億5980万円,15980,15980.0,135.76m,135.76,135.76,83.51m,83.51,83.51,4LDK,4LDK,4LDK,即引渡可,2022年12月,,軽量鉄骨3階建(1戸),東京都世田谷区野沢１-529-50他,東急田園都市線,三軒茶屋,,,11,https://suumo.jp/ikkodate/tokyo/sc_setagaya/nc_70818187/,35.6359084,139.6713584
玉川４（二子玉川駅） 1億6980万円,新築一戸建て,1億6980万円,16980,16980.0,109.97m,109.97,109.97,119.89m,119.89,119.89,4LDK,4LDK,4LDK,即引渡可,2022年9月,,木造2階建,東京都世田谷区玉川４,東急大井町線,二子玉川,,,8,https://suumo.jp/ikkodate/tokyo/sc_setagaya/nc_70203903/,35.618707,139.6228959
玉川４（二子玉川駅） 1億7880万円,新築一戸建て,1億7880万円,17880,17880.0,110.33m（33.37坪）,110.33,110.33,115.77m（35.02坪）,115.77,115.77,4LDK,4LDK,4LDK,即引渡可,2022年9月,,木造2階建,東京都世田谷区玉川４,東急大井町線,二子玉川,,,8,https://suumo.jp/ikkodate/tokyo/sc_setagaya/nc_70203834/,35.618707,139.6228959
世田谷区東玉川1丁目新築戸建,新築一戸建て,2億5800万円,25800,25800.0,230.63m,230.63,230.63,200.37m（実測）,200.37,200.37,3LDK+3S（納戸）,3LDK+3S,3LDK+3S,相談,2023年4月,,木造2階建,東京都世田谷区東玉川１,東急池上線,雪が谷大塚,,,8,https://suumo.jp/ikkodate/tokyo/sc_setagaya/nc_71523504/,35.5971544,139.677738
【トヨタホーム】トヨタホームエスト等々力新モデルハウス発表,新築一戸建て,未定,未定,,111.61m～113.93m,111.61,113.93,100.45m～100.57m,100.45,100.57,3LDK,3LDK,3LDK,2023年3月下旬予定,2023年2月下旬予定,,-,東京都世田谷区中町１-51番39他（地番）,東急大井町線,等々力,,,6,https://suumo.jp/ikkodate/tokyo/sc_setagaya/nc_70229657/,35.6074122,139.6432963
建築条件付き土地/烏山8区画/北烏山8丁目,建築条件付土地,4249万7000円～5316万円,4249万7000円,5316.0,,,,80.04m～80.05m（実測）,80.04,80.05,,,,,,,,東京都世田谷区北烏山８,京王線,千歳烏山,,,23,https://suumo.jp/tochi/tokyo/sc_setagaya/nc_71756226/,35.676442,139.5897603
成城学園の建築条件付売地　全5区画,建築条件付土地,4741万3000円～5537万4000円,4741万3000円,,,,,86.24m～114.91m（実測）,86.24,114.91,,,,,,,,東京都世田谷区喜多見７,小田急線,喜多見,,,14,https://suumo.jp/tochi/tokyo/sc_setagaya/nc_71395569/,35.6320106,139.5961311
成城学園の建築条件付売地　全4区画,建築条件付土地,5381万3000円～5483万6000円,5381万3000円,,,,,92.7m～126.9m,92.7,126.9,,,,,,,,東京都世田谷区喜多見７,小田急線,喜多見,,,14,https://suumo.jp/tochi/tokyo/sc_setagaya/nc_71395585/,35.6320106,139.5961311
♪予約制内覧会開催中♪◆千歳烏山エリアの31坪土地◆,建築条件付土地,5980万円,5980,5980.0,,,,102.95m（実測）,102.95,102.95,,,,,,,,東京都世田谷区給田３,京王線,千歳烏山,,,12,https://suumo.jp/tochi/tokyo/sc_setagaya/nc_71720206/,35.6660087,139.5923085
世田谷区祖師谷6丁目　建築条件付き売地　全1区画　建築条件外し可能,建築条件付土地,6590万円,6590,6590.0,,,,97.11m（実測）,97.11,97.11,,,,,,,,東京都世田谷区祖師谷６,京王線,千歳烏山,,,20,https://suumo.jp/tochi/tokyo/sc_setagaya/nc_71642878/,35.6550973,139.6050513
桜3丁目　売地,建築条件付土地,6780万円,6780,6780.0,,,,56.5m,56.5,56.5,,,,,,,,東京都世田谷区桜３,東急世田谷線,上町,,,12,https://suumo.jp/tochi/tokyo/sc_setagaya/nc_71462434/,35.6406077,139.6388331
桜３（桜新町駅） 6780万円,建築条件付土地,6780万円,6780,6780.0,,,,57.28m（登記）,57.28,57.28,,,,,,,,東京都世田谷区桜３,東急田園都市線,桜新町,,,18,https://suumo.jp/tochi/tokyo/sc_setagaya/nc_71683245/,35.6406077,139.6388331
世田谷区喜多見9丁目　建築条件付き売地　全3区画　最終1区画　建築条件外し可能,建築条件付土地,7040万円,7040,7040.0,,,,102.58m（実測）,102.58,102.58,,,,,,,,東京都世田谷区喜多見９,小田急線,喜多見,,,4,https://suumo.jp/tochi/tokyo/sc_setagaya/nc_71216230/,35.638418,139.5878492
上北沢５（八幡山駅） 6980万円,中古一戸建て,6980万円,6980,6980.0,85.68m（登記）,85.68,85.68,86.38m（登記）,86.38,86.38,3LDK+S（納戸）,3LDK+S,3LDK+S,即引渡可,2005年7月,,木造2階建,東京都世田谷区上北沢５,京王線,八幡山,,,8,https://suumo.jp/chukoikkodate/tokyo/sc_setagaya/nc_71758430/,35.672844,139.6177969
上北沢５（八幡山駅） 6980万円,中古一戸建て,6980万円,6980,6980.0,85.68m（25.91坪）,85.68,85.68,86.38m（26.12坪）,86.38,86.38,3LDK+S（納戸）,3LDK+S,3LDK+S,即引渡可,2005年7月,,木造2階建,東京都世田谷区上北沢５,京王線,八幡山,,,8,https://suumo.jp/chukoikkodate/tokyo/sc_setagaya/nc_71747549/,35.672844,139.6177969
岡本１（用賀駅） 7400万円,中古一戸建て,7400万円,7400,7400.0,82.8m（登記）,82.8,82.8,103.51m（登記）,103.51,103.51,4LDK,4LDK,4LDK,相談,2002年7月,,木造2階建（軸組工法）,東京都世田谷区岡本１,東急田園都市線,用賀,,,21,https://suumo.jp/chukoikkodate/tokyo/sc_setagaya/nc_71574990/,35.6257099,139.6203463
太子堂２（三軒茶屋駅） 7480万円,中古一戸建て,7480万円,7480,7480.0,76.33m（実測）,76.33,76.33,54.11m（登記）,54.11,54.11,3LDK,3LDK,3LDK,相談,1996年10月,,木造3階建,東京都世田谷区太子堂２,東急田園都市線,三軒茶屋,,,6,https://suumo.jp/chukoikkodate/tokyo/sc_setagaya/nc_70991190/,35.6467476,139.6726343
砧４（祖師ヶ谷大蔵駅） 7680万円,中古一戸建て,7680万円,7680,7680.0,105.58m,105.58,105.58,7.47m,7.47,7.47,3LDK+2S（納戸）,3LDK+2S,3LDK+2S,相談,2002年8月,,木造3階建,東京都世田谷区砧４,小田急線,祖師ヶ谷大蔵,,,6,https://suumo.jp/chukoikkodate/tokyo/sc_setagaya/nc_71583183/,35.6414931,139.6139729
岡本１（用賀駅） 7680万円,中古一戸建て,7680万円,7680,7680.0,107.82m（登記）、うち地下室27.84m,107.82,107.82,100m（登記）,100.0,100.0,3LDK,3LDK,3LDK,即引渡可,2006年9月,,木造2階地下1階建,東京都世田谷区岡本１,東急田園都市線,用賀,,,21,https://suumo.jp/chukoikkodate/tokyo/sc_setagaya/nc_71058419/,35.6257099,139.6203463
岡本１（用賀駅） 7680万円,中古一戸建て,7680万円,7680,7680.0,107.82m（32.61坪）,107.82,107.82,100m（30.24坪）,100.0,100.0,3LDK,3LDK,3LDK,相談,2006年9月,,木造2階地下1階建一部RC,東京都世田谷区岡本１,東急田園都市線,用賀,,,19,https://suumo.jp/chukoikkodate/tokyo/sc_setagaya/nc_71190896/,35.6257099,139.6203463
三軒茶屋２（三軒茶屋駅） 7980万円,中古一戸建て,7980万円,7980,7980.0,60.25m（登記）,60.25,60.25,46.18m（登記）,46.18,46.18,1LDK,1LDK,1LDK,即引渡可,2017年9月,,木造3階建（軸組工法）,東京都世田谷区三軒茶屋２-53-8,東急田園都市線,三軒茶屋,,,10,https://suumo.jp/chukoikkodate/tokyo/sc_setagaya/nc_71380574/,35.642534,139.6622886
奥沢２（緑が丘駅） 8380万円,中古一戸建て,8380万円,8380,8380.0,67.59m（20.44坪）,67.59,67.59,60.84m（18.40坪）,60.84,60.84,2LDK+2S（納戸）,2LDK+2S,2LDK+2S,相談,2000年8月,,木造2階建,東京都世田谷区奥沢２,東急大井町線,緑が丘,,,4,https://suumo.jp/chukoikkodate/tokyo/sc_setagaya/nc_98101390/,35.6064605,139.6751861
若林１（三軒茶屋駅） 8700万円,中古一戸建て,8700万円,8700,8700.0,76.45m（実測）,76.45,76.45,50.21m（実測）,50.21,50.21,3LDK,3LDK,3LDK,相談,1996年2月,,木造2階地下1階建,東京都世田谷区若林１,東急田園都市線,三軒茶屋,,,10,https://suumo.jp/chukoikkodate/tokyo/sc_setagaya/nc_71729243/,35.6449383,139.6624281
南烏山５（千歳烏山駅） 9280万円,中古一戸建て,9280万円,9280,9280.0,86.11m（26.04坪）（登記）,86.11,86.11,113.87m（34.44坪）（登記）,113.87,113.87,3LDK,3LDK,3LDK,即引渡可,2014年10月,,木造2階建,東京都世田谷区南烏山５,京王線,千歳烏山,,,3,https://suumo.jp/chukoikkodate/tokyo/sc_setagaya/nc_71146963/,35.6666801,139.6025025
岡本３（二子玉川駅） 9590万円,中古一戸建て,9590万円,9590,9590.0,108.05m（登記）,108.05,108.05,172.63m（登記）、路地状部分：47.6m含,172.63,172.63,4LDK,4LDK,4LDK,即引渡可,2016年4月,,木造2階建,東京都世田谷区岡本３,東急田園都市線,二子玉川,,,24,https://suumo.jp/chukoikkodate/tokyo/sc_setagaya/nc_70815716/,35.6259506,139.6152476
船橋４（千歳船橋駅） 9870万円,中古一戸建て,9870万円,9870,9870.0,110.71m（登記）,110.71,110.71,120.29m（登記）,120.29,120.29,3LDK,3LDK,3LDK,相談,2018年5月,,木造2階建,東京都世田谷区船橋４,小田急線,千歳船橋,,,13,https://suumo.jp/chukoikkodate/tokyo/sc_setagaya/nc_71574728/,35.6550137,139.6190716
奥沢６（九品仏駅） 1億1000万円,中古一戸建て,1億1000万円,11000,11000.0,77.72m（登記）,77.72,77.72,78.31m（登記）,78.31,78.31,3LDK,3LDK,3LDK,相談,1998年10月,,軽量鉄骨2階建,東京都世田谷区奥沢６,東急大井町線,九品仏,,,5,https://suumo.jp/chukoikkodate/tokyo/sc_setagaya/nc_71652581/,35.60414170000001,139.6637038
奥沢７（自由が丘駅） 1億1500万円,中古一戸建て,1億1500万円,11500,11500.0,93.35m（登記）,93.35,93.35,97.71m（登記）,97.71,97.71,3LDK,3LDK,3LDK,即引渡可,2020年8月,,木造2階建,東京都世田谷区奥沢７,東急東横線,自由が丘,,,13,https://suumo.jp/chukoikkodate/tokyo/sc_setagaya/nc_70641237/,35.607707,139.6611525
下馬３（三軒茶屋駅） 1億1800万円,中古一戸建て,1億1800万円,11800,11800.0,121.6m（登記）,121.6,121.6,91.07m（登記）,91.07,91.07,3LDK,3LDK,3LDK,相談,2011年11月,,木造2階地下1階建一部RC,東京都世田谷区下馬３,東急田園都市線,三軒茶屋,,,17,https://suumo.jp/chukoikkodate/tokyo/sc_setagaya/nc_71222966/,35.6357867,139.6739102
羽根木２（明大前駅） 1億2000万円,中古一戸建て,1億2000万円,12000,12000.0,156.28m,156.28,156.28,99.9m（登記）,99.9,99.9,4LDK+S（納戸）,4LDK+S,4LDK+S,相談,1991年9月,,木造2階地下1階建一部RC,東京都世田谷区羽根木２,京王線,明大前,,,9,https://suumo.jp/chukoikkodate/tokyo/sc_setagaya/nc_71742235/,35.6669737,139.6573257
大蔵５（成城学園前駅） 1億2000万円,中古一戸建て,1億2000万円,12000,12000.0,134.85m（40.79坪）（登記）,134.85,134.85,164.36m（49.71坪）（登記）,164.36,164.36,3LDK,3LDK,3LDK,相談,2007年7月,,鉄骨2階建,東京都世田谷区大蔵５,小田急線,成城学園前,,,21,https://suumo.jp/chukoikkodate/tokyo/sc_setagaya/nc_70245627/,35.6286048,139.6076002
成城２（成城学園前駅） 1億2500万円,中古一戸建て,1億2500万円,12500,12500.0,119.45m（登記）,119.45,119.45,153.37m（登記）,153.37,153.37,2LDK,2LDK,2LDK,相談,2018年3月,,木造合金メッキ鋼板葺2階建,東京都世田谷区成城２,小田急線,成城学園前,,,5,https://suumo.jp/chukoikkodate/tokyo/sc_setagaya/nc_70809994/,35.6389679,139.600591
宮坂１（宮の坂駅） 1億2980万円,中古一戸建て,1億2980万円,12980,12980.0,153.88m（実測）,153.88,153.88,100m（登記）,100.0,100.0,5LDK,5LDK,5LDK,相談,1997年11月,,RC3階建,東京都世田谷区宮坂１,東急世田谷線,宮の坂,,,4,https://suumo.jp/chukoikkodate/tokyo/sc_setagaya/nc_71736962/,35.648516,139.6413835
宮坂3丁目　土地,建築条件付土地,7633万円,7633,7633.0,,,,92.48m（27.97坪）（登記）,92.48,92.48,,,,,,,,東京都世田谷区宮坂３-41-8,小田急線,経堂,,,10,https://suumo.jp/tochi/tokyo/sc_setagaya/nc_71724540/,35.6561893,139.6335136
岡本１（用賀駅） 7980万円,建築条件付土地,7980万円,7980,7980.0,,,,104.56m,104.56,104.56,,,,,,,,東京都世田谷区岡本１,東急田園都市線,用賀,,,15,https://suumo.jp/tochi/tokyo/sc_setagaya/nc_71504331/,35.6257099,139.6203463
若林駅　世田谷区若林2丁目　建築条件付き土地　全2区画,建築条件付土地,9680万円・1億10万円,9680,1010.0,,,,72.35m・74.33m（21.88坪・22.48坪）（実測）,72.35,74.33,,,,,,,,東京都世田谷区若林２,東急世田谷線,若林,,,6,https://suumo.jp/tochi/tokyo/sc_setagaya/nc_71425673/,35.6483799,139.6624281
三軒茶屋　北東角地の宅地分譲,建築条件付土地,9680万円～1億9690万円,9680,19690.0,,,,72.35m～146.68m（登記）,72.35,146.68,,,,,,,,東京都世田谷区若林２,東急世田谷線,若林,,,6,https://suumo.jp/tochi/tokyo/sc_setagaya/nc_71459326/,35.6483799,139.6624281
コモンステージ上用賀【積水ハウス】,建築条件付土地,1億2200万円～1億2600万円,12200,12600.0,,,,120.09m～120.1m（36.32坪～36.33坪）,120.09,120.1,,,,,,,,東京都世田谷区上用賀６-93番21他,東急田園都市線,用賀,,,17,https://suumo.jp/tochi/tokyo/sc_setagaya/nc_70467441/,35.635792,139.6254456
▽BASE下馬５▽南東接道の３７坪整形地！学芸大学駅徒歩圏内の閑静な邸宅街,建築条件付土地,1億2680万円,12680,12680.0,,,,125.13m（登記）,125.13,125.13,,,,,,,,東京都世田谷区下馬５,東急東横線,学芸大学,,,10,https://suumo.jp/tochi/tokyo/sc_setagaya/nc_71511574/,35.6351037,139.6822041
パークナードテラス世田谷砧（建築条件付）宅地分譲,建築条件付土地,1億4800万円,14800,14800.0,,,,146.2m,146.2,146.2,,,,,,,,東京都世田谷区砧８-７５－２,小田急線,祖師ヶ谷大蔵,,,7,https://suumo.jp/tochi/tokyo/sc_setagaya/nc_71160822/,35.640192,139.6050513
コモンステージ駒沢【積水ハウス】,建築条件付土地,1億9500万円～2億3700万円,19500,23700.0,,,,154.05m～231.32m（46.59坪～69.97坪）,154.05,231.32,,,,,,,,東京都世田谷区駒沢２-１０３４番２９の一部（地番）（分筆予定）,東急田園都市線,駒沢大学,,,9,https://suumo.jp/tochi/tokyo/sc_setagaya/nc_70629898/,35.6348555,139.6573257
コモンステージ奥沢【積水ハウス】,建築条件付土地,3億3900万円,33900,33900.0,,,,327.03m（98.92坪）,327.03,327.03,,,,,,,,東京都世田谷区奥沢１-169番1他,東急目黒線,奥沢,,,10,https://suumo.jp/tochi/tokyo/sc_setagaya/nc_70774529/,35.60091600000001,139.6771
▽BASE奥沢１ Second▽ 「自由が丘」が生活圏内、日常に彩りを添える邸宅地,建築条件付土地,未定,未定,,,,,88.32m・88.39m（実測）,88.32,88.39,,,,,,,,東京都世田谷区奥沢１,東急大井町線,緑が丘,,,7,https://suumo.jp/tochi/tokyo/sc_setagaya/nc_70840238/,35.60091600000001,139.6771
【ADCAST】松原一丁目プロジェクト,建築条件付土地,未定,未定,,,,,77m,77.0,77.0,,,,,,,,東京都世田谷区松原１,京王線,明大前,,,6,https://suumo.jp/tochi/tokyo/sc_setagaya/nc_71757441/,35.667411,139.6541369
【売主物件】GARBOCITY世田谷区北烏山１丁目２期（自社設計・施工・販売）,新築一戸建て,5880万円,5880,5880.0,66.24m（20.03坪）（実測）,66.24,66.24,82.91m（25.08坪）（実測）,82.91,82.91,3LDK+S（納戸）,3LDK+S,3LDK+S,契約後1ヶ月,2023年9月下旬予定,,木造2階建（軸組工法）,東京都世田谷区北烏山１-51-16,京王線,芦花公園,,,15,https://suumo.jp/ikkodate/tokyo/sc_setagaya/nc_71712357/,35.6776673,139.6035678
北烏山１（芦花公園駅） 5880万円,新築一戸建て,5880万円,5880,5880.0,66.24m,66.24,66.24,82.91m,82.91,82.91,3LDK,3LDK,3LDK,2023年9月予定,2023年9月,,木造2階建,東京都世田谷区北烏山１,京王線,芦花公園,,,15,https://suumo.jp/ikkodate/tokyo/sc_setagaya/nc_71707994/,35.675415,139.6056885
世田谷区鎌田2丁目 新築戸建全2棟,新築一戸建て,5880万円～5980万円,5880,5980.0,90.62m～96.93m,90.62,96.93,70.26m～70.35m,70.26,70.35,3LDK,3LDK,3LDK,相談,2022年12月,,木造3階建,東京都世田谷区鎌田２8-8,東急田園都市線,二子玉川,砧本村,10,2,https://suumo.jp/ikkodate/tokyo/sc_setagaya/nc_71746899/,35.6188722,139.6133356
世田谷区鎌田2丁目　2棟現場,新築一戸建て,5880万円～5980万円,5880,5980.0,90.62m～96.93m（27.41坪～29.32坪）（実測）,90.62,96.93,70.26m～70.35m（21.25坪～21.28坪）（実測）,70.26,70.35,3LDK,3LDK,3LDK,即引渡可,2022年12月末,,木造3階建,東京都世田谷区鎌田２,東急田園都市線,二子玉川,,,24,https://suumo.jp/ikkodate/tokyo/sc_setagaya/nc_71633357/,35.6186757,139.6114238
２０２３年９月完成予定！　閑静な住宅街　床暖房・ロフト付き,新築一戸建て,5880万円,5880,5880.0,66.24m（20.03坪）,66.24,66.24,82.91m（25.08坪）,82.91,82.91,33LDK,33LDK,33LDK,相談,2023年9月,,木造2階建,東京都世田谷区北烏山１,京王線,芦花公園,,,15,https://suumo.jp/ikkodate/tokyo/sc_setagaya/nc_71757510/,35.675415,139.6056885
世田谷区喜多見3丁目　新築分譲住宅　全3棟　最終2棟←現地販売会開催中！,新築一戸建て,5980万円・6380万円,5980,6380.0,91.08m・94.6m（27.55坪・28.61坪）（実測）,91.08,94.6,119.5m・136.18m（36.14坪・41.19坪）（実測）,119.5,136.18,3LDK+S（納戸）・4LDK,3LDK+S,4LDK,2023年2月,2023年2月上旬,,木造2階建,東京都世田谷区喜多見３,小田急線,喜多見,,,23,https://suumo.jp/ikkodate/tokyo/sc_setagaya/nc_70852299/,35.62552400000001,139.5999539
大蔵５丁目新築戸建【現地販売会開催中】,新築一戸建て,5990万円・6990万円,5990,6990.0,88.6m・97.29m（26.80坪・29.43坪）,88.6,97.29,115.54m・118.31m（34.95坪・35.78坪）,115.54,118.31,4LDK,4LDK,4LDK,即引渡可,2022年12月,,木造2階建,東京都世田谷区大蔵５,小田急線,祖師ヶ谷大蔵,,,26,https://suumo.jp/ikkodate/tokyo/sc_setagaya/nc_71729574/,35.6286048,139.6076002
♪予約制内覧会開催中♪◆最終１棟・祖師谷の新築戸建◆  ,新築一戸建て,6280万円,6280,6280.0,72.79m,72.79,72.79,88.13m,88.13,88.13,3LDK,3LDK,3LDK,即引渡可,2022年8月,,木造2階建,東京都世田谷区祖師谷３,小田急線,祖師ヶ谷大蔵,,,10,https://suumo.jp/ikkodate/tokyo/sc_setagaya/nc_71077928/,35.6447785,139.6050513
世田谷区給田2丁目　新築戸建,新築一戸建て,6380万円,6380,6380.0,72.86m（22.04坪）,72.86,72.86,91.48m（27.67坪）,91.48,91.48,1LDK,1LDK,1LDK,2023年7月予定,2023年7月,,木造2階建,東京都世田谷区給田２,京王線,千歳烏山,,,12,https://suumo.jp/ikkodate/tokyo/sc_setagaya/nc_71675552/,35.6647439,139.5948569
桜丘２（千歳船橋駅） 1億3800万円,中古一戸建て,1億3800万円,13800,13800.0,197.65m,197.65,197.65,170.45m,170.45,170.45,4LDK,4LDK,4LDK,相談,2010年9月,,軽量鉄骨3階建,東京都世田谷区桜丘２,小田急線,千歳船橋,,,5,https://suumo.jp/chukoikkodate/tokyo/sc_setagaya/nc_70606710/,35.6448468,139.6279953
桜丘２（千歳船橋駅） 1億3800万円,中古一戸建て,1億3800万円,13800,13800.0,197.65m,197.65,197.65,170.45m,170.45,170.45,7LDK+S（納戸）,7LDK+S,7LDK+S,相談,2010年9月,,軽量鉄骨造　地上3階,東京都世田谷区桜丘２,小田急線,千歳船橋,,,7,https://suumo.jp/chukoikkodate/tokyo/sc_setagaya/nc_70817988/,35.6448468,139.6279953
成城７（成城学園前駅） 1億5880万円,中古一戸建て,1億5880万円,15880,15880.0,109.92m（登記）,109.92,109.92,145.72m（登記）,145.72,145.72,4LDK+S（納戸）,4LDK+S,4LDK+S,相談,2015年11月,,木造2階建,東京都世田谷区成城７,小田急線,成城学園前,,,13,https://suumo.jp/chukoikkodate/tokyo/sc_setagaya/nc_71420299/,35.6481405,139.600591
上北沢４（上北沢駅） 1億7900万円,中古一戸建て,1億7900万円,17900,17900.0,233.4m（70.60坪）,233.4,233.4,124.37m（37.62坪）,124.37,124.37,4LLDDKK+3S（納戸）,4LLDDKK+3S,4LLDDKK+3S,相談,1997年3月,,木造3階建（２×４工法）一部RC,東京都世田谷区上北沢４,京王線,上北沢,,,3,https://suumo.jp/chukoikkodate/tokyo/sc_setagaya/nc_70625573/,35.6696409,139.6219398
等々力１（等々力駅） 2億4800万円,中古一戸建て,2億4800万円,24800,24800.0,245.76m（登記）,245.76,245.76,254.56m（登記）,254.56,254.56,3LDK+S（納戸）,3LDK+S,3LDK+S,相談,2009年12月,,RC2階地下1階建一部RC,東京都世田谷区等々力１,東急大井町線,等々力,,,12,https://suumo.jp/chukoikkodate/tokyo/sc_setagaya/nc_95422311/,35.6025786,139.6483975
上野毛２（上野毛駅） 2億9900万円,中古一戸建て,2億9900万円,29900,29900.0,455.98m,455.98,455.98,437.08m,437.08,437.08,5LDK+S（納戸）,5LDK+S,5LDK+S,相談,1998年12月,,RC4階建,東京都世田谷区上野毛２,東急大井町線,上野毛,,,8,https://suumo.jp/chukoikkodate/tokyo/sc_setagaya/nc_71454063/,35.6077765,139.6356453
北烏山１（富士見ヶ丘駅） 2100万円,中古一戸建て,2100万円,2100,2100.0,57.02m（登記）,57.02,57.02,73.98m（登記）,73.98,73.98,4K,4K,4K,相談,1963年11月,,木造2階建,東京都世田谷区北烏山１,京王井の頭線,富士見ヶ丘,,,13,https://suumo.jp/chukoikkodate/tokyo/sc_setagaya/nc_70061118/,35.675415,139.6056885
深沢２（都立大学駅） 2350万円,中古一戸建て,2350万円,2350,2350.0,34.24m（登記）,34.24,34.24,27.17m（登記）,27.17,27.17,1DK,1DK,1DK,即引渡可,1991年3月,,木造2階建,東京都世田谷区深沢２,東急東横線,都立大学,,,20,https://suumo.jp/chukoikkodate/tokyo/sc_setagaya/nc_71022791/,35.6214782,139.6611525
上馬４（駒沢大学駅） 2780万円,中古一戸建て,2780万円,2780,2780.0,49.68m,49.68,49.68,55.84m,55.84,55.84,1LLDDKK,1LLDDKK,1LLDDKK,相談,1994年1月,,木造2階建,東京都世田谷区上馬４,東急田園都市線,駒沢大学,,,4,https://suumo.jp/chukoikkodate/tokyo/sc_setagaya/nc_71596599/,35.6363945,139.6611525
桜丘３（千歳船橋駅） 3080万円,中古一戸建て,3080万円,3080,3080.0,69.57m（21.04坪）（登記）、うち地下車庫14.58m,69.57,69.57,47.64m（14.41坪）（登記）,47.64,47.64,2LDK,2LDK,2LDK,相談,1984年8月,,木造2階地下1階建,東京都世田谷区桜丘３,小田急線,千歳船橋,,,15,https://suumo.jp/chukoikkodate/tokyo/sc_setagaya/nc_70763377/,35.6408929,139.6267204
桜丘３（千歳船橋駅） 3080万円,中古テラスハウス,3080万円,3080,3080.0,69.57m（21.04坪）、うち地下室14.58m,69.57,69.57,47.64m（14.41坪）（登記）,47.64,47.64,3DK,3DK,3DK,相談,1984年8月,,木造2階地下1階建,東京都世田谷区桜丘３,小田急線,千歳船橋,,,15,https://suumo.jp/chukoikkodate/tokyo/sc_setagaya/nc_71351371/,35.6408929,139.6267204
北烏山１（芦花公園駅） 3180万円,中古一戸建て,3180万円,3180,3180.0,65.27m（登記）,65.27,65.27,54.97m（登記）,54.97,54.97,2LDK,2LDK,2LDK,相談,1991年5月,,木造2階建,東京都世田谷区北烏山１,京王線,芦花公園,,,13,https://suumo.jp/chukoikkodate/tokyo/sc_setagaya/nc_71003321/,35.675415,139.6056885
北烏山１（芦花公園駅） 3180万円,中古一戸建て,3180万円,3180,3180.0,65.27m（登記）,65.27,65.27,54.97m（登記）,54.97,54.97,2LDK,2LDK,2LDK,相談,1991年5月,,木造2階建,東京都世田谷区北烏山１,京王線,芦花公園,,,13,https://suumo.jp/chukoikkodate/tokyo/sc_setagaya/nc_71005771/,35.675415,139.6056885
北烏山１（富士見ヶ丘駅） 3180万円,中古一戸建て,3180万円,3180,3180.0,65.27m（登記）,65.27,65.27,54.97m（登記）,54.97,54.97,2LDK,2LDK,2LDK,相談,1991年5月,,木造2階建,東京都世田谷区北烏山１,京王井の頭線,富士見ヶ丘,,,15,https://suumo.jp/chukoikkodate/tokyo/sc_setagaya/nc_71475716/,35.675415,139.6056885
北沢５（笹塚駅） 3300万円,中古一戸建て,3300万円,3300,3300.0,70.1m（21.20坪）（登記）,70.1,70.1,56.25m（17.01坪）（実測）,56.25,56.25,4DK,4DK,4DK,相談,1980年3月,,木造2階建,東京都世田谷区北沢５,京王線,笹塚,,,8,https://suumo.jp/chukoikkodate/tokyo/sc_setagaya/nc_71420307/,35.6704452,139.6688067
松原１（明大前駅） 3380万円,中古一戸建て,3380万円,3380,3380.0,93.47m（登記）,93.47,93.47,74.61m（登記）,74.61,74.61,6DK,6DK,6DK,相談,1967年6月,,木造2階建（軸組工法）,東京都世田谷区松原１,京王線,明大前,,,6,https://suumo.jp/chukoikkodate/tokyo/sc_setagaya/nc_71684160/,35.667411,139.6541369
八幡山２（八幡山駅） 3380万円,中古一戸建て,3380万円,3380,3380.0,89.52m（27.07坪）,89.52,89.52,42.2m（12.76坪）（登記）,42.2,42.2,4DK,4DK,4DK,相談,1996年6月,,備考参照3階地下1階建,東京都世田谷区八幡山２,京王線,八幡山,,,18,https://suumo.jp/chukoikkodate/tokyo/sc_setagaya/nc_71093079/,35.660866,139.6165222
粕谷３（千歳烏山駅） 3500万円,中古一戸建て,3500万円,3500,3500.0,131.46m（39.76坪）,131.46,131.46,37.23m（11.26坪）（登記）,37.23,37.23,2DK,2DK,2DK,相談,1982年7月,,木造2階建,東京都世田谷区粕谷３,京王線,千歳烏山,,,15,https://suumo.jp/chukoikkodate/tokyo/sc_setagaya/nc_71410611/,35.6608294,139.6050513
【新築分譲住宅】世田谷区宇奈根1丁目,新築一戸建て,6388万円,6388,6388.0,87.2m（実測）,87.2,87.2,109.06m（実測）,109.06,109.06,4LDK,4LDK,4LDK,相談,2022年12月,,木造2階建,東京都世田谷区宇奈根１,東急大井町線,二子玉川,砧本村,14,9,https://suumo.jp/ikkodate/tokyo/sc_setagaya/nc_71770845/,35.6203799,139.6056885
松原３丁目新築戸建【建物プレゼン受付中】,新築一戸建て,6480万円,6480,6480.0,65.95m（19.94坪）、倉庫付住宅,65.95,65.95,40.99m（12.39坪）,40.99,40.99,2LDK,2LDK,2LDK,相談,2023年3月,,木造3階建（２×４工法）,東京都世田谷区松原３,東急世田谷線,下高井戸,,,4,https://suumo.jp/ikkodate/tokyo/sc_setagaya/nc_71729427/,35.6655983,139.6439339
世田谷区松原３丁目新築戸建,新築一戸建て,6480万円,6480,6480.0,65.95m（19.94坪）,65.95,65.95,40.99m（12.39坪）（実測）,40.99,40.99,1LDK+S（納戸）,1LDK+S,1LDK+S,2023年4月予定,2023年4月,,木造3階建,東京都世田谷区松原３,京王線,下高井戸,,,4,https://suumo.jp/ikkodate/tokyo/sc_setagaya/nc_70928242/,35.6655983,139.6439339
【近日完成♪新築戸建４棟】,新築一戸建て,6680万円～7080万円,6680,7080.0,94.4m～101.86m（28.55坪～30.81坪）,94.4,101.86,118.42m～130.83m（35.82坪～39.57坪）,118.42,130.83,2LDK+2S（納戸）～4LDK,2LDK+2S,4LDK,相談,2023年3月予定,,-,東京都世田谷区宇奈根２,東急田園都市線,二子玉川,鎌田,9,11,https://suumo.jp/ikkodate/tokyo/sc_setagaya/nc_71757221/,35.62062,139.600591
世田谷区給田１丁目　新築戸建,新築一戸建て,6880万円,6880,6880.0,72.9m（22.05坪）（実測）,72.9,72.9,94.7m（28.64坪）（登記）,94.7,94.7,3LDK,3LDK,3LDK,2023年2月,2023年2月,,木造2階建,東京都世田谷区給田１,京王線,仙川,,,8,https://suumo.jp/ikkodate/tokyo/sc_setagaya/nc_71302393/,35.6625701,139.5923085
◆◇現地販売会開催◇◆　上祖師谷2丁目　新築戸建,新築一戸建て,6980万円,6980,6980.0,90.01m（実測）,90.01,90.01,90.87m（実測）,90.87,90.87,3LDK,3LDK,3LDK,即引渡可,2022年12月,,木造2階建,東京都世田谷区上祖師谷２,京王線,千歳烏山,,,16,https://suumo.jp/ikkodate/tokyo/sc_setagaya/nc_71712596/,35.6599211,139.5999539
世田谷区上祖師谷2丁目　新築戸建　B号棟,新築一戸建て,6980万円,6980,6980.0,90.01m（27.22坪）,90.01,90.01,90.87m（27.48坪）,90.87,90.87,3LDK,3LDK,3LDK,相談,2022年12月,,木造2階建,東京都世田谷区上祖師谷２,京王線,千歳烏山,,,15,https://suumo.jp/ikkodate/tokyo/sc_setagaya/nc_71573942/,35.6599211,139.5999539
～新 規 公 開～　鎌田２丁目新築戸建て,新築一戸建て,6980万円,6980,6980.0,104.34m（実測）,104.34,104.34,108.74m（登記）,108.74,108.74,4LDK,4LDK,4LDK,2023年9月予定,2023年9月,,木造2階建,東京都世田谷区鎌田２,東急田園都市線,二子玉川,砧本村,15,1,https://suumo.jp/ikkodate/tokyo/sc_setagaya/nc_71607424/,35.6186757,139.6114238
ALAMODO Speciality 世田谷区北烏山１丁目 新築分譲住宅 全２棟,新築一戸建て,7280万円・7680万円,7280,7680.0,78.97m・80.19m,78.97,80.19,80.3m・80.31m,80.3,80.31,3LDK,3LDK,3LDK,2023年7月上旬予定,2023年6月末予定,,木造2階建（軸組工法）,東京都世田谷区北烏山１,京王線,芦花公園,,,11,https://suumo.jp/ikkodate/tokyo/sc_setagaya/nc_71552002/,35.675415,139.6056885
北烏山１（芦花公園駅） 7280万円・7680万円,新築一戸建て,7280万円・7680万円,7280,7680.0,78.97m・80.19m,78.97,80.19,80.3m・80.31m,80.3,80.31,2LDK+S（納戸）・3LDK,2LDK+S,3LDK,相談,2023年6月予定,,-,東京都世田谷区北烏山１,京王線,芦花公園,,,11,https://suumo.jp/ikkodate/tokyo/sc_setagaya/nc_71690556/,35.675415,139.6056885
♪予約制内覧会開催中♪千歳烏山エリア　新築戸建　全２棟◆,新築一戸建て,7280万円・7680万円,7280,7680.0,78.97m・80.19m（実測）,78.97,80.19,80.3m・80.31m（実測）,80.3,80.31,2LDK+S（納戸）・3LDK,2LDK+S,3LDK,2023年7月上旬予定,2023年6月末予定,,木造2階建,東京都世田谷区北烏山１,京王線,芦花公園,,,11,https://suumo.jp/ikkodate/tokyo/sc_setagaya/nc_71551048/,35.675415,139.6056885
上馬４丁目新築戸建,新築一戸建て,7280万円,7280,7280.0,69.06m,69.06,69.06,38.38m,38.38,38.38,2LDK+S（納戸）,2LDK+S,2LDK+S,2023年6月予定,2023年6月,,木造3階建,東京都世田谷区上馬４,東急田園都市線,駒沢大学,,,9,https://suumo.jp/ikkodate/tokyo/sc_setagaya/nc_71107022/,35.6363945,139.6611525
世田谷区北烏山１丁目新築戸建Ｂ号棟,新築一戸建て,7280万円,7280,7280.0,78.97m（23.88坪）,78.97,78.97,80.3m（24.29坪）（実測）,80.3,80.3,2LDK+S（納戸）,2LDK+S,2LDK+S,2023年6月予定,2023年6月,,木造2階建,東京都世田谷区北烏山１,京王線,千歳烏山,,,16,https://suumo.jp/ikkodate/tokyo/sc_setagaya/nc_70714995/,35.675415,139.6056885
京王井の頭線『久我山』駅徒歩13分　新築戸建　全2棟　世田谷区北烏山4丁目,新築一戸建て,7380万円,7380,7380.0,80.19m,80.19,80.19,82.77m～82.78m,82.77,82.78,3LDK,3LDK,3LDK,相談,2023年3月下旬予定,,木造2階建、木造2階建,東京都世田谷区北烏山４,京王井の頭線,久我山,,,13,https://suumo.jp/ikkodate/tokyo/sc_setagaya/nc_70297927/,35.6801574,139.5961311
■建物設備のプレゼン承ります■２駅２路線利用可能！世田谷アドレスの新築戸建３棟分譲,新築一戸建て,7480万円～8480万円,7480,8480.0,88.59m～99.77m（26.79坪～30.18坪）,88.59,99.77,89.2m～100.04m（26.98坪～30.26坪）,89.2,100.04,1LDK+2S（納戸）～4LDK,1LDK+2S,4LDK,2023年6月上旬予定,2023年5月下旬予定,,木造2階建,東京都世田谷区北烏山１-50,京王線,芦花公園,,,11,https://suumo.jp/ikkodate/tokyo/sc_setagaya/nc_71571291/,35.676828,139.6045734
世田谷区三宿2丁目新築戸建て,新築一戸建て,7750万円,7750,7750.0,79.87m（登記）,79.87,79.87,74.59m（登記）,74.59,74.59,3LDK+S（納戸）,3LDK+S,3LDK+S,相談,2023年1月,,木造3階建,東京都世田谷区三宿２,東急田園都市線,三軒茶屋,,,16,https://suumo.jp/ikkodate/tokyo/sc_setagaya/nc_71623615/,35.6523625,139.6751861
世田谷区三宿2丁目 新築戸建,新築一戸建て,7880万円,7880,7880.0,79.87m,79.87,79.87,74.59m,74.59,74.59,3LDK+S（納戸）,3LDK+S,3LDK+S,即引渡可,2023年1月,,木造2階建,東京都世田谷区三宿２,東急田園都市線,三軒茶屋,,,14,https://suumo.jp/ikkodate/tokyo/sc_setagaya/nc_71620705/,35.6523625,139.6751861
世田谷区上北沢１丁目 新築一戸建て,新築一戸建て,7980万円,7980,7980.0,66.38m（20.07坪）（実測）,66.38,66.38,83.14m（25.14坪）（実測）,83.14,83.14,2LDK+S（納戸）,2LDK+S,2LDK+S,2023年6月予定,2023年6月,,木造2階建,東京都世田谷区上北沢１,京王線,桜上水,,,12,https://suumo.jp/ikkodate/tokyo/sc_setagaya/nc_71655833/,35.6621675,139.6254456
世田谷区上祖師谷新築戸建て,新築一戸建て,7980万円～8680万円,7980,8680.0,86.84m～117.99m,86.84,117.99,70m～78.7m,70.0,78.7,4LDK,4LDK,4LDK,相談,2023年6月予定,,木造3階建,東京都世田谷区上祖師谷１,京王線,千歳烏山,,,4,https://suumo.jp/ikkodate/tokyo/sc_setagaya/nc_71725598/,35.6645064,139.5999539
Luxsis 千歳烏山 Vol.21,新築一戸建て,7990万円～8790万円(税込),7990,8790.0,95.32m～106.89m,95.32,106.89,94.51m～95.86m,94.51,95.86,1LDK+3S（納戸）～2LDK+2S（納戸）,1LDK+3S,2LDK+2S,2023年8月末予定,2023年7月末予定,,木造スレート葺　2階建（制震住宅）,東京都世田谷区北烏山１,京王線,千歳烏山,,,17,https://suumo.jp/ikkodate/tokyo/sc_setagaya/nc_71619945/,35.675415,139.6056885
南烏山１（八幡山駅） 3580万円,中古一戸建て,3580万円,3580,3580.0,54.06m（16.35坪）（登記）,54.06,54.06,42.08m（12.72坪）（登記）,42.08,42.08,3LDK+S（納戸）,3LDK+S,3LDK+S,即引渡可,1985年7月,,木造2階建（在来）,東京都世田谷区南烏山１,京王線,八幡山,,,6,https://suumo.jp/chukoikkodate/tokyo/sc_setagaya/nc_70402922/,35.6679832,139.6114238
成城１（成城学園前駅） 3680万円,中古一戸建て,3680万円,3680,3680.0,72.68m（登記）,72.68,72.68,86.4m（登記）,86.4,86.4,4LDK,4LDK,4LDK,相談,1970年5月,,木造2階建,東京都世田谷区成城１,小田急線,成城学園前,,,11,https://suumo.jp/chukoikkodate/tokyo/sc_setagaya/nc_70322265/,35.6345783,139.6025025
北烏山７ 3680万円,中古一戸建て,3680万円,3680,3680.0,108.74m（登記）、うち地下室29.16m,108.74,108.74,70.37m（登記）,70.37,70.37,3LDK,3LDK,3LDK,相談,1992年2月,,木造2階地下1階建一部木造,東京都世田谷区北烏山７,京王線,千歳烏山,北野水無,5,2,https://suumo.jp/chukoikkodate/tokyo/sc_setagaya/nc_70650503/,35.68039390000001,139.5910344
八幡山１（桜上水駅） 3780万円,中古一戸建て,3780万円,3780,3780.0,55.89m（16.90坪）（登記）,55.89,55.89,35.33m（10.68坪）（登記）,35.33,35.33,3DK,3DK,3DK,相談,1983年5月,,木造2階建,東京都世田谷区八幡山１,京王線,桜上水,,,15,https://suumo.jp/chukoikkodate/tokyo/sc_setagaya/nc_71743534/,35.6617736,139.6216211
船橋５（経堂駅） 3980万円,中古一戸建て,3980万円,3980,3980.0,47m（登記）,47.0,47.0,32.3m（登記）,32.3,32.3,2DK,2DK,2DK,相談,1989年1月,,木造2階建,東京都世田谷区船橋５,小田急線,経堂,,,10,https://suumo.jp/chukoikkodate/tokyo/sc_setagaya/nc_70337622/,35.6558011,139.6267204
赤堤５（下高井戸駅） 4200万円,中古一戸建て,4200万円,4200,4200.0,54.26m（実測）,54.26,54.26,44.7m（実測）,44.7,44.7,2DK,2DK,2DK,相談,1982年1月,,木造2階建,東京都世田谷区赤堤５,京王線,下高井戸,,,7,https://suumo.jp/chukoikkodate/tokyo/sc_setagaya/nc_71504408/,35.664495,139.6369204
上馬１（三軒茶屋駅） 4300万円,中古一戸建て,4300万円,4300,4300.0,57.95m（登記）,57.95,57.95,49.87m（登記）,49.87,49.87,2DK,2DK,2DK,相談,1977年5月,,木造2階建,東京都世田谷区上馬１,東急田園都市線,三軒茶屋,,,7,https://suumo.jp/chukoikkodate/tokyo/sc_setagaya/nc_71761968/,35.6383248,139.6688067
砧３（祖師ヶ谷大蔵駅） 4400万円,中古一戸建て,4400万円,4400,4400.0,39.53m（登記）,39.53,39.53,41.89m（登記）,41.89,41.89,1DK,1DK,1DK,相談,2012年9月,,軽量鉄骨2階建,東京都世田谷区砧３,小田急線,祖師ヶ谷大蔵,,,12,https://suumo.jp/chukoikkodate/tokyo/sc_setagaya/nc_71102768/,35.6363926,139.6126983
宇奈根２ 4680万円,中古一戸建て,4680万円,4680,4680.0,87.35m（26.42坪）,87.35,87.35,113m（34.18坪）,113.0,113.0,4LDK,4LDK,4LDK,相談,2005年12月,,木造2階建,東京都世田谷区宇奈根２,東急田園都市線,二子玉川,砧本村,15,13,https://suumo.jp/chukoikkodate/tokyo/sc_setagaya/nc_70966786/,35.62062,139.600591
大原２（代田橋駅） 4800万円,中古一戸建て,4800万円,4800,4800.0,39.91m（12.07坪）（登記）,39.91,39.91,41.85m（12.65坪）（登記）,41.85,41.85,3K,3K,3K,相談,1981年1月,,木造2階建,東京都世田谷区大原２,京王線,代田橋,,,3,https://suumo.jp/chukoikkodate/tokyo/sc_setagaya/nc_98262605/,35.6697806,139.6586012
若林１（三軒茶屋駅） 4880万円,中古一戸建て,4880万円,4880,4880.0,51.46m（登記）,51.46,51.46,32.2m（実測）,32.2,32.2,1LDK+S（納戸）,1LDK+S,1LDK+S,相談,2012年5月,,木造3階建,東京都世田谷区若林１,東急田園都市線,三軒茶屋,,,9,https://suumo.jp/chukoikkodate/tokyo/sc_setagaya/nc_97415991/,35.6449383,139.6624281
深沢６（駒沢大学駅） 4980万円,中古一戸建て,4980万円,4980,4980.0,78.61m（23.77坪）（登記）,78.61,78.61,50.26m（15.20坪）（登記）,50.26,50.26,2LDK+S（納戸）,2LDK+S,2LDK+S,相談,1999年3月,,木造2階地下1階建,東京都世田谷区深沢６,東急田園都市線,駒沢大学,,,20,https://suumo.jp/chukoikkodate/tokyo/sc_setagaya/nc_71420841/,35.6236249,139.6522237
代田１（世田谷代田駅） 4980万円,中古一戸建て,4980万円,4980,4980.0,77.61m（23.47坪）,77.61,77.61,77.03m（23.30坪）（登記）、路地状部分：47m含,77.03,77.03,1LDK,1LDK,1LDK,即引渡可,1997年11月,,木造2階地下1階建,東京都世田谷区代田１,小田急線,世田谷代田,,,11,https://suumo.jp/chukoikkodate/tokyo/sc_setagaya/nc_71385301/,35.6529684,139.6624281
岡本１（用賀駅） 4980万円,中古一戸建て,4980万円,4980,4980.0,66.24m（20.03坪）（登記）,66.24,66.24,74.84m（22.63坪）（登記）、路地状部分：4m含,74.84,74.84,4DK,4DK,4DK,相談,1976年10月,,木造2階建,東京都世田谷区岡本１,東急田園都市線,用賀,,,15,https://suumo.jp/chukoikkodate/tokyo/sc_setagaya/nc_71023416/,35.6257099,139.6203463
深沢６（桜新町駅） 4980万円,中古一戸建て,4980万円,4980,4980.0,78.61m（登記）,78.61,78.61,50.26m（登記）,50.26,50.26,2LDK+S（納戸）,2LDK+S,2LDK+S,相談,1999年3月,,木造2階地下1階建一部RC,東京都世田谷区深沢６,東急田園都市線,桜新町,,,20,https://suumo.jp/chukoikkodate/tokyo/sc_setagaya/nc_71737735/,35.6236249,139.6522237
北烏山３（千歳烏山駅） 5080万円,中古一戸建て,5080万円,5080,5080.0,66.72m（20.18坪）,66.72,66.72,42.02m（12.71坪）（登記）,42.02,42.02,1LDK+S（納戸）,1LDK+S,1LDK+S,相談,2014年9月,,木造3階建,東京都世田谷区北烏山３,京王線,千歳烏山,,,16,https://suumo.jp/chukoikkodate/tokyo/sc_setagaya/nc_70888569/,35.6753361,139.6012282
北烏山４（千歳烏山駅） 5180万円,中古一戸建て,5180万円,5180,5180.0,74.01m（登記）,74.01,74.01,45.95m（登記）,45.95,45.95,2LDK+S（納戸）,2LDK+S,2LDK+S,相談,2011年12月,,木造3階建,東京都世田谷区北烏山４,京王線,千歳烏山,,,14,https://suumo.jp/chukoikkodate/tokyo/sc_setagaya/nc_71445968/,35.6801574,139.5961311
北烏山４（久我山駅） 5180万円,中古一戸建て,5180万円,5180,5180.0,70.94m（21.45坪）（登記）,70.94,70.94,45.95m（13.89坪）（登記）,45.95,45.95,2LDK+S（納戸）,2LDK+S,2LDK+S,相談,2011年12月,,木造3階建,東京都世田谷区北烏山４,京王井の頭線,久我山,,,15,https://suumo.jp/chukoikkodate/tokyo/sc_setagaya/nc_71404714/,35.6801574,139.5961311
代沢２（池ノ上駅） 5180万円,中古一戸建て,5180万円,5180,5180.0,39.66m（登記）,39.66,39.66,40.78m（登記）,40.78,40.78,2DK,2DK,2DK,即引渡可,1977年3月,,木造2階建,東京都世田谷区代沢２,京王井の頭線,池ノ上,,,5,https://suumo.jp/chukoikkodate/tokyo/sc_setagaya/nc_71623965/,35.6582198,139.6726343
千歳台３（千歳船橋駅） 5200万円,中古一戸建て,5200万円,5200,5200.0,70.69m,70.69,70.69,43.93m（登記）,43.93,43.93,1LDK+S（納戸）,1LDK+S,1LDK+S,相談,2010年12月,,木造3階建,東京都世田谷区千歳台３,小田急線,千歳船橋,,,18,https://suumo.jp/chukoikkodate/tokyo/sc_setagaya/nc_70637811/,35.65232659999999,139.6152476
□■新発表■□千歳烏山駅徒歩13分！限定1棟新築！LDK約19帖ゆとりの3LDK！,新築一戸建て,8280万円,8280,8280.0,88.75m,88.75,88.75,100.28m,100.28,100.28,3LDK,3LDK,3LDK,2023年6月予定,2023年5月,,木造2階建,東京都世田谷区粕谷３,京王線,千歳烏山,,,13,https://suumo.jp/ikkodate/tokyo/sc_setagaya/nc_71493066/,35.6608294,139.6050513
大原1丁目　新築戸建,新築一戸建て,8480万円,8480,8480.0,106.83m（登記）,106.83,106.83,72.07m（登記）、路地状部分：17.05m含,72.07,72.07,4LDK,4LDK,4LDK,相談,2022年10月,,木造3階建,東京都世田谷区大原１,京王線,代田橋,,,9,https://suumo.jp/ikkodate/tokyo/sc_setagaya/nc_70461902/,35.6692227,139.6643416
砧１（祖師ヶ谷大蔵駅） 8580万円,新築一戸建て,8580万円,8580,8580.0,96.05m,96.05,96.05,94.61m（登記）,94.61,94.61,2LDK+S（納戸）,2LDK+S,2LDK+S,2023年4月予定,2023年3月,,木造2階建,東京都世田谷区砧１,小田急線,祖師ヶ谷大蔵,,,16,https://suumo.jp/ikkodate/tokyo/sc_setagaya/nc_71423076/,35.6369827,139.6184342
世田谷区千歳台２丁目新築戸建,新築一戸建て,8680万円,8680,8680.0,69.56m（21.04坪）,69.56,69.56,88.65m（26.81坪）,88.65,88.65,3LDK,3LDK,3LDK,2023年7月予定,2023年6月,,木造2階建,東京都世田谷区千歳台２,小田急線,祖師ヶ谷大蔵,,,11,https://suumo.jp/ikkodate/tokyo/sc_setagaya/nc_71674326/,35.650786,139.6114238
世田谷区八幡山３丁目　新築戸建,新築一戸建て,8680万円,8680,8680.0,75.4m（22.80坪）（登記）,75.4,75.4,94.77m（28.66坪）（実測）,94.77,94.77,3LDK,3LDK,3LDK,2023年5月予定,2023年4月,,木造2階建,東京都世田谷区八幡山３,京王線,八幡山,,,8,https://suumo.jp/ikkodate/tokyo/sc_setagaya/nc_70772720/,35.6657684,139.6158849
Luxsis 下高井戸 Vol.27,新築一戸建て,8790万円～9990万円(税込),8790,9990.0,98.82m～120.43m,98.82,120.43,73.33m～75.12m,73.33,75.12,1LDK+2S（納戸）～3LDK+S（納戸）,1LDK+2S,3LDK+S,2023年8月末予定,2023年7月末予定,,A号棟：木造スレート葺3階建（耐震+制震住宅） B号棟：木造スレート葺2階建(制震住宅),東京都世田谷区松原４,京王線,下高井戸,,,9,https://suumo.jp/ikkodate/tokyo/sc_setagaya/nc_71330986/,35.6618413,139.6445716
世田谷区大原１丁目　新築戸建,新築一戸建て,8880万円,8880,8880.0,106.83m（32.31坪）（実測）,106.83,106.83,72.07m（21.80坪）（実測）、路地状部分：13.8m含,72.07,72.07,2LDK+S（納戸）,2LDK+S,2LDK+S,相談,2023年1月,,木造3階建,東京都世田谷区大原１,京王線,代田橋,,,8,https://suumo.jp/ikkodate/tokyo/sc_setagaya/nc_71555577/,35.6692227,139.6643416
Luxsis 千歳烏山 Vol.22,新築一戸建て,8990万円～9790万円（税込）,8990,9790.0,99.32m～100.26m,99.32,100.26,125.44m～126.66m,125.44,126.66,1LDK+3S（納戸）～4LDK,1LDK+3S,4LDK,2023年6月末予定,2023年5月末予定,,木造スレート葺　2階建（制震住宅）,東京都世田谷区北烏山６,京王線,千歳烏山,,,11,https://suumo.jp/ikkodate/tokyo/sc_setagaya/nc_71668230/,35.67379469999999,139.5974053
世田谷区祖師谷2期,新築一戸建て,8990万円,8990,8990.0,108.69m～109.93m,108.69,109.93,93.81m・94m（実測）,93.81,94.0,2LDK+2S（納戸）,2LDK+2S,2LDK+2S,相談,2023年4月下旬予定,,-,東京都世田谷区祖師谷４,小田急線,祖師ヶ谷大蔵,,,12,https://suumo.jp/ikkodate/tokyo/sc_setagaya/nc_71491780/,35.6482183,139.6050513
リーフィア世田谷桜丘〈ザ・ブルーム/イースト街区〉,新築一戸建て,9128万円～1億628万円,9128,10628.0,85.09m～118.07m（25.73坪～35.71坪）,85.09,118.07,80.23m～94.31m（24.26坪～28.52坪）,80.23,94.31,3LDK～4LDK+S（納戸）,3LDK,4LDK+S,2023年4月下旬予定,2022年12月下旬,,木造2階建（2×4工法）,東京都世田谷区桜丘４-2780番15（地番）他,小田急線,千歳船橋,,,13,https://suumo.jp/ikkodate/tokyo/sc_setagaya/nc_97829343/,35.6404997,139.6228959
世田谷区経堂4丁目新築戸建A号棟,新築一戸建て,9280万円,9280,9280.0,111.81m、うち１階車庫10.93m,111.81,111.81,70.58m（実測）,70.58,70.58,2LDK+S（納戸）,2LDK+S,2LDK+S,2023年4月予定,2023年4月,,木造3階建,東京都世田谷区経堂４,小田急線,経堂,,,9,https://suumo.jp/ikkodate/tokyo/sc_setagaya/nc_70786991/,35.6489207,139.6267204
☆世田谷区経堂１丁目新築分譲４区画☆小田急線「千歳船橋」駅徒歩10分の立地です！,新築一戸建て,9290万円～9390万円,9290,9390.0,121.68m,121.68,121.68,77.49m～77.71m,77.49,77.71,2LDK+2S（納戸）,2LDK+2S,2LDK+2S,相談,2023年2月下旬予定,,-,東京都世田谷区経堂３-17-5,小田急線,千歳船橋,,,11,https://suumo.jp/ikkodate/tokyo/sc_setagaya/nc_71463919/,35.6514385,139.6278559
経堂3丁目新築戸建てB号棟,新築一戸建て,9290万円,9290,9290.0,92.32m（登記）,92.32,92.32,87.1m（登記）,87.1,87.1,4LDK,4LDK,4LDK,相談,2023年1月,,木造2階建,東京都世田谷区経堂３,小田急線,千歳船橋,,,10,https://suumo.jp/ikkodate/tokyo/sc_setagaya/nc_71732047/,35.652241,139.6292703
【新築戸建４棟】「千歳船橋」駅１０分　近日完成予定♪４LDK+P♪,新築一戸建て,9390万円～9590万円,9390,9590.0,92.32m～121.68m（27.92坪～36.80坪）,92.32,121.68,77.49m～98.26m（23.44坪～29.72坪）,77.49,98.26,2LDK+S（納戸）・4LDK,2LDK+S,4LDK,相談,2023年2月中旬予定,,-,東京都世田谷区経堂３,小田急線,千歳船橋,,,10,https://suumo.jp/ikkodate/tokyo/sc_setagaya/nc_71757346/,35.652241,139.6292703
世田谷区尾山台２丁目,新築一戸建て,9480万円～9980万円,9480,9980.0,94.4m～94.44m,94.4,94.44,119.97m～119.99m（登記）,119.97,119.99,3LDK,3LDK,3LDK,相談,2022年10月,,木造,東京都世田谷区尾山台２-４－１７,東急大井町線,尾山台,,,13,https://suumo.jp/ikkodate/tokyo/sc_setagaya/nc_71697172/,35.5999783,139.6514963
【新築戸建】世田谷区祖師谷４　２SLDK+P,新築一戸建て,9880万円,9880,9880.0,101.85m（30.80坪）,101.85,101.85,96.17m（29.09坪）,96.17,96.17,2LDK+S（納戸）,2LDK+S,2LDK+S,即引渡可,2022年10月,,木造2階建,東京都世田谷区祖師谷４,小田急線,成城学園前,,,12,https://suumo.jp/ikkodate/tokyo/sc_setagaya/nc_71757490/,35.6482183,139.6050513
♪予約制内覧会開催中♪◆価格改定　梅ヶ丘駅まで8分　南東角の新築戸建◆,新築一戸建て,9980万円,9980,9980.0,105.06m、うち１階車庫11.8m,105.06,105.06,81.65m,81.65,81.65,4LDK,4LDK,4LDK,即引渡可,2022年10月,,木造3階建,東京都世田谷区梅丘２,小田急線,梅ヶ丘,,,8,https://suumo.jp/ikkodate/tokyo/sc_setagaya/nc_70686543/,35.6503276,139.651586
「梅ヶ丘」 新築一戸建て,新築一戸建て,9980万円,9980,9980.0,116.12m（登記）、うち１階車庫11.8m,116.12,116.12,81.65m（実測）,81.65,81.65,3LDK+S（納戸）,3LDK+S,3LDK+S,相談,2022年10月,,木造3階建,東京都世田谷区梅丘２,小田急線,梅ヶ丘,,,8,https://suumo.jp/ikkodate/tokyo/sc_setagaya/nc_71559965/,35.6503276,139.651586
【新築戸建】梅丘２,新築一戸建て,9980万円,9980,9980.0,105.06m（31.78坪）,105.06,105.06,81.65m（24.69坪）,81.65,81.65,3LDK+S（納戸）,3LDK+S,3LDK+S,相談,2022年10月,,木造3階建,東京都世田谷区梅丘２,小田急線,梅ヶ丘,,,8,https://suumo.jp/ikkodate/tokyo/sc_setagaya/nc_70767807/,35.6503276,139.651586
世田谷区桜上水２丁目新築戸建,新築一戸建て,9980万円,9980,9980.0,77.84m（23.54坪）,77.84,77.84,96.48m（29.18坪）,96.48,96.48,3LDK,3LDK,3LDK,2023年7月予定,2023年6月,,木造2階建,東京都世田谷区桜上水２,京王線,桜上水,,,15,https://suumo.jp/ikkodate/tokyo/sc_setagaya/nc_71564233/,35.6597545,139.6279953
鎌田１ 5240万円,中古一戸建て,5240万円,5240,5240.0,55.6m（登記）,55.6,55.6,59.27m（登記）,59.27,59.27,3LDK,3LDK,3LDK,相談,2022年4月,,木造2階建,東京都世田谷区鎌田１,東急田園都市線,二子玉川,三角公園,4,4,https://suumo.jp/chukoikkodate/tokyo/sc_setagaya/nc_70903315/,35.6155069,139.6177969
宇奈根２ 5350万円,中古一戸建て,5350万円,5350,5350.0,75.76m（22.91坪）,75.76,75.76,122.53m（37.06坪）（登記）,122.53,122.53,3K,3K,3K,相談,1993年3月,,木造2階建（軸組工法）,東京都世田谷区宇奈根２,東急田園都市線,二子玉川,鎌田,11,12,https://suumo.jp/chukoikkodate/tokyo/sc_setagaya/nc_71362683/,35.62062,139.600591
玉堤１（尾山台駅） 5380万円,中古一戸建て,5380万円,5380,5380.0,69.53m（登記）,69.53,69.53,55.83m（登記）,55.83,55.83,2LDK+S（納戸）,2LDK+S,2LDK+S,相談,2018年9月,,木造3階建（軸組工法）一部木造,東京都世田谷区玉堤１,東急大井町線,尾山台,,,14,https://suumo.jp/chukoikkodate/tokyo/sc_setagaya/nc_71410322/,35.5975486,139.651586
喜多見１ 5480万円,中古一戸建て,5480万円,5480,5480.0,99.81m（30.19坪）（登記）,99.81,99.81,122.85m（37.16坪）（登記）,122.85,122.85,4LDK,4LDK,4LDK,相談,2016年1月,,木造2階建（軸組工法）,東京都世田谷区喜多見１,小田急線,成城学園前,下宿,21,12,https://suumo.jp/chukoikkodate/tokyo/sc_setagaya/nc_71043129/,35.6208598,139.595494
祖師谷６（祖師ヶ谷大蔵駅） 5480万円,中古一戸建て,5480万円,5480,5480.0,78.56m（23.76坪）,78.56,78.56,100.02m（30.25坪）,100.02,100.02,4LDK,4LDK,4LDK,相談,1997年8月,,木造2階建,東京都世田谷区祖師谷６,小田急線,祖師ヶ谷大蔵,,,20,https://suumo.jp/chukoikkodate/tokyo/sc_setagaya/nc_71037965/,35.6550973,139.6050513
上馬２（駒沢大学駅） 5480万円,中古一戸建て,5480万円,5480,5480.0,54.85m（登記）,54.85,54.85,35.55m（登記）,35.55,35.55,1LDK+S（納戸）,1LDK+S,1LDK+S,相談,2017年10月,,木造3階建,東京都世田谷区上馬２,東急田園都市線,駒沢大学,,,8,https://suumo.jp/chukoikkodate/tokyo/sc_setagaya/nc_71274138/,35.6379334,139.6649795
大蔵６ 5480万円,中古一戸建て,5480万円,5480,5480.0,120.2m（登記）,120.2,120.2,156.78m（登記）、路地状部分：28m含,156.78,156.78,4LDK,4LDK,4LDK,相談,2004年4月,,軽量鉄骨2階建,東京都世田谷区大蔵６,東急田園都市線,二子玉川,永安寺前,11,2,https://suumo.jp/chukoikkodate/tokyo/sc_setagaya/nc_70545681/,35.6256776,139.6088747
羽根木２（代田橋駅） 5580万円,中古一戸建て,5580万円,5580,5580.0,85.13m（25.75坪）,85.13,85.13,85.48m（25.85坪）（登記）,85.48,85.48,2LDK+S（納戸）,2LDK+S,2LDK+S,相談,2013年7月,,木造2階建,東京都世田谷区羽根木２,京王線,代田橋,,,4,https://suumo.jp/chukoikkodate/tokyo/sc_setagaya/nc_71614578/,35.6669737,139.6573257
野毛２（等々力駅） 5580万円,中古一戸建て,5580万円,5580,5580.0,75.9m,75.9,75.9,60.14m,60.14,60.14,4LDK,4LDK,4LDK,相談,1995年10月,,RC2階地下1階建一部SRC,東京都世田谷区野毛２,東急大井町線,等々力,,,15,https://suumo.jp/chukoikkodate/tokyo/sc_setagaya/nc_71724780/,35.6017962,139.6407459
喜多見１ 5680万円,中古一戸建て,5680万円,5680,5680.0,99.81m（登記）,99.81,99.81,122.85m（登記）,122.85,122.85,4LDK,4LDK,4LDK,相談,2016年1月,,木造2階建,東京都世田谷区喜多見１,小田急線,狛江,荒玉水道,7,5,https://suumo.jp/chukoikkodate/tokyo/sc_setagaya/nc_71393711/,35.6208598,139.595494
北烏山４（久我山駅） 5780万円,中古一戸建て,5780万円,5780,5780.0,108.94m（32.95坪）,108.94,108.94,110.53m（33.43坪）（登記）,110.53,110.53,4LDK,4LDK,4LDK,相談,1990年5月,,木造2階建,東京都世田谷区北烏山４,京王井の頭線,久我山,,,12,https://suumo.jp/chukoikkodate/tokyo/sc_setagaya/nc_70273928/,35.6801574,139.5961311
祖師谷１（祖師ヶ谷大蔵駅） 5880万円,中古一戸建て,5880万円,5880,5880.0,83.55m（25.27坪）（登記）、うち地下室32.49m,83.55,83.55,58.98m（17.84坪）（登記）,58.98,58.98,3LDK,3LDK,3LDK,相談,1999年9月,,木造2階地下1階建,東京都世田谷区祖師谷１,小田急線,祖師ヶ谷大蔵,,,6,https://suumo.jp/chukoikkodate/tokyo/sc_setagaya/nc_70435956/,35.6453695,139.6107865
鎌田２（二子玉川駅） 5900万円,中古一戸建て,5900万円,5900,5900.0,81m（24.50坪）（登記）,81.0,81.0,94.11m（28.46坪）（登記）,94.11,94.11,3LDK,3LDK,3LDK,相談,2020年4月,,木造2階建,東京都世田谷区鎌田２,東急田園都市線,二子玉川,,,24,https://suumo.jp/chukoikkodate/tokyo/sc_setagaya/nc_71077885/,35.6186757,139.6114238
鎌田２ 5900万円,中古一戸建て,5900万円,5900,5900.0,81m（24.50坪）（登記）、事務所付住宅,81.0,81.0,94.11m（28.46坪）（登記）,94.11,94.11,3LDK,3LDK,3LDK,相談,2020年4月,,木造2階建,東京都世田谷区鎌田２,東急田園都市線,二子玉川,砧本村,13,6,https://suumo.jp/chukoikkodate/tokyo/sc_setagaya/nc_70750930/,35.6186757,139.6114238
南烏山１（芦花公園駅） 5970万円,中古一戸建て,5970万円,5970,5970.0,81.53m（登記）,81.53,81.53,74.69m（登記）、路地状部分：7.5m含,74.69,74.69,3LDK,3LDK,3LDK,相談,2003年6月,,木造2階建一部木造,東京都世田谷区南烏山１,京王線,芦花公園,,,6,https://suumo.jp/chukoikkodate/tokyo/sc_setagaya/nc_71393721/,35.6679832,139.6114238
太子堂１（三軒茶屋駅） 5980万円,中古一戸建て,5980万円,5980,5980.0,89.06m（登記）,89.06,89.06,94.8m（登記）,94.8,94.8,3DDKK,3DDKK,3DDKK,相談,1988年5月,,木造2階建,東京都世田谷区太子堂１,東急田園都市線,三軒茶屋,,,5,https://suumo.jp/chukoikkodate/tokyo/sc_setagaya/nc_71341762/,35.6435013,139.6745481
大蔵５（成城学園前駅） 5980万円,中古一戸建て,5980万円,5980,5980.0,101.9m（30.82坪）（登記）,101.9,101.9,101.52m（30.70坪）（登記）,101.52,101.52,2LDK,2LDK,2LDK,即引渡可,2003年12月,,木造3階建,東京都世田谷区大蔵５,小田急線,成城学園前,,,22,https://suumo.jp/chukoikkodate/tokyo/sc_setagaya/nc_70912454/,35.6286048,139.6076002
砧３（祖師ヶ谷大蔵駅） 5980万円,中古一戸建て,5980万円,5980,5980.0,85.86m（25.97坪）,85.86,85.86,66.53m（20.12坪）（登記）,66.53,66.53,3LDK,3LDK,3LDK,相談,2001年7月,,木造2階地下1階建,東京都世田谷区砧３,小田急線,祖師ヶ谷大蔵,,,13,https://suumo.jp/chukoikkodate/tokyo/sc_setagaya/nc_71595797/,35.6363926,139.6126983
祖師谷６（千歳烏山駅） 5980万円,中古一戸建て,5980万円,5980,5980.0,81.25m（24.57坪）（登記）,81.25,81.25,101.95m（30.83坪）（登記）,101.95,101.95,3LDK,3LDK,3LDK,相談,2002年6月,,木造2階建（在来）,東京都世田谷区祖師谷６,京王線,千歳烏山,,,21,https://suumo.jp/chukoikkodate/tokyo/sc_setagaya/nc_71682765/,35.6550973,139.6050513
羽根木２（代田橋駅） 5980万円,中古一戸建て,5980万円,5980,5980.0,98.28m（29.72坪）,98.28,98.28,59.32m（17.94坪）（登記）,59.32,59.32,2DK,2DK,2DK,相談,1972年2月,,鉄骨3階建,東京都世田谷区羽根木２,京王線,代田橋,,,5,https://suumo.jp/chukoikkodate/tokyo/sc_setagaya/nc_71211942/,35.6669737,139.6573257
上祖師谷２丁目　新築戸建,新築一戸建て,9990万円,9990,9990.0,122.82m（37.15坪）（登記）,122.82,122.82,154.66m（46.78坪）（実測）,154.66,154.66,4LDK,4LDK,4LDK,2023年4月予定,2023年4月,,木造2階建,東京都世田谷区上祖師谷２,京王線,千歳烏山,,,12,https://suumo.jp/ikkodate/tokyo/sc_setagaya/nc_70787151/,35.6599211,139.5999539
世田谷区松原1丁目　新築戸建,新築一戸建て,1億480万円,10480,10480.0,117.07m（35.41坪）（実測）,117.07,117.07,70.01m（21.17坪）（登記）,70.01,70.01,3LDK+S（納戸）,3LDK+S,3LDK+S,2023年6月予定,2023年5月,,木造3階建,東京都世田谷区松原１,京王線,代田橋,,,5,https://suumo.jp/ikkodate/tokyo/sc_setagaya/nc_71121590/,35.667411,139.6541369
Luxsis 千歳烏山 Vol.24,新築一戸建て,1億490万円～1億790万円（税込）,10490,10790.0,149.59m～151.25m,149.59,151.25,87.63m～88.29m,87.63,88.29,2LDK+3S（納戸）～3LDK+2S（納戸）,2LDK+3S,3LDK+2S,2023年7月末予定,2023年6月末予定,,木造3階建（耐震＋制震住宅）,東京都世田谷区粕谷３,京王線,千歳烏山,,,14,https://suumo.jp/ikkodate/tokyo/sc_setagaya/nc_71387048/,35.6608294,139.6050513
等々力７（尾山台駅） 1億980万円,新築一戸建て,1億980万円,10980,10980.0,99.36m,99.36,99.36,99.54m（実測）,99.54,99.54,3LDK,3LDK,3LDK,即引渡可,2022年8月,,木造2階建,東京都世田谷区等々力７,東急大井町線,尾山台,,,13,https://suumo.jp/ikkodate/tokyo/sc_setagaya/nc_71428876/,35.6148365,139.6560501
ファインコート深沢 翠景邸第1期,新築一戸建て,1億980万円～1億5880万円,10980,15880.0,91.29m～102.63m,91.29,102.63,95.07m～102.65m,95.07,102.65,3LDK・4LDK,3LDK,4LDK,2023年4月下旬予定,2022年12月上旬,,木造2階建（２×４工法）,東京都世田谷区深沢６丁目30番9号他（住居表示）,東急田園都市線,桜新町,,,15,https://suumo.jp/ikkodate/tokyo/sc_setagaya/nc_70951637/,35.624082,139.6501512
【下北沢デザイナーズ新築戸建】長期優良住宅・耐震最高等級3・ホームセキュリティあり,新築一戸建て,1億990万円・1億3990万円,10990,13990.0,107.16m・111.78m,107.16,111.78,97.28m・97.85m（実測）,97.28,97.85,2LDK+S（納戸）・3LDK,2LDK+S,3LDK,即引渡可,2022年10月,,-,東京都世田谷区大原１,小田急線,下北沢,,,10,https://suumo.jp/ikkodate/tokyo/sc_setagaya/nc_70204890/,35.6692227,139.6643416
ファインコート世田谷砧 緑謳邸　第1期,新築一戸建て,1億1000万円～1億5000万円（予定）,11000,15000.0,96.11m～102.69m,96.11,102.69,103.81m～128.72m,103.81,128.72,3LDK～4LDK,3LDK,4LDK,2023年5月下旬予定,2023年2月下旬予定,,木造2階建（２×４工法）,東京都世田谷区砧４丁目272番15他（地番）,小田急線,祖師ヶ谷大蔵,,,8,https://suumo.jp/ikkodate/tokyo/sc_setagaya/nc_71242360/,35.6414931,139.6139729
＆RESORT　HOUSE　船橋6丁目,新築一戸建て,1億1780万円,11780,11780.0,109.3m（33.06坪）（実測）,109.3,109.3,132.24m（40.00坪）（登記）,132.24,132.24,2LDK+2S（納戸）,2LDK+2S,2LDK+2S,2023年2月,2023年2月,,木造2階建,東京都世田谷区船橋６,小田急線,千歳船橋,,,15,https://suumo.jp/ikkodate/tokyo/sc_setagaya/nc_70473931/,35.6577007,139.6228959
＆RESORT HOUSE 千歳船橋III期◇屋上テラス付◇制震・耐震設計◇,新築一戸建て,1億1780万円,11780,11780.0,109.3m（実測）,109.3,109.3,131.55m（実測）,131.55,131.55,2LDK+2S（納戸）,2LDK+2S,2LDK+2S,即引渡可,2022年2月,,木造2階建（軸組工法）,東京都世田谷区船橋６,小田急線,千歳船橋,,,16,https://suumo.jp/ikkodate/tokyo/sc_setagaya/nc_71764601/,35.6577007,139.6228959
世田谷区等々力2丁目　新築,新築一戸建て,1億1980万円,11980,11980.0,82.39m（登記）,82.39,82.39,92.65m（実測）,92.65,92.65,2LDK+S（納戸）,2LDK+S,2LDK+S,契約後1ヶ月,2022年9月,,木造2階建,東京都世田谷区等々力２,東急大井町線,尾山台,,,4,https://suumo.jp/ikkodate/tokyo/sc_setagaya/nc_97781430/,35.6065343,139.6496729
世田谷区下馬4丁目新築戸建,新築一戸建て,1億1980万円,11980,11980.0,136.39m,136.39,136.39,69.98m,69.98,69.98,2LDK+2S（納戸）,2LDK+2S,2LDK+2S,2023年6月予定,2023年6月,,木造3階建（在来工法）,東京都世田谷区下馬４,東急東横線,祐天寺,,,13,https://suumo.jp/ikkodate/tokyo/sc_setagaya/nc_71129654/,35.635543,139.679014
世田谷区駒沢２丁目 戸建て,新築一戸建て,1億2045万円,12045,12045.0,94.9m,94.9,94.9,60.47m,60.47,60.47,3LDK,3LDK,3LDK,即引渡可,2022年11月,,木造3階建,東京都世田谷区駒沢２,東急田園都市線,駒沢大学,,,6,https://suumo.jp/ikkodate/tokyo/sc_setagaya/nc_71727764/,35.6348555,139.6573257
■オープンハウス開催　世田谷区砧２丁目全３棟　長期優良住宅　耐震等級３　全棟駐車２台,新築一戸建て,1億2500万円・1億7500万円A号棟　１２５００万円　Ｂ号棟１７５００万円,12500,17500.0,124.36m・184.2m（37.61坪・55.72坪）（実測）,124.36,184.2,133.13m・150.43m（40.27坪・45.50坪）（実測）,133.13,150.43,1LDK+2S（納戸）・3LDK+S（納戸）,1LDK+2S,3LDK+S,相談,2022年12月,,木造２階建　ＨＰＢ工法,東京都世田谷区砧２-6-14,小田急線,祖師ヶ谷大蔵,,,10,https://suumo.jp/ikkodate/tokyo/sc_setagaya/nc_70645733/,35.6418875,139.6160641
◆完成済新築分譲住宅◆　　等々力７丁目 新築,新築一戸建て,1億2500万円・1億3800万円,12500,13800.0,136m・136.97m（実測）,136.0,136.97,74.31m・79.42m（実測）,74.31,79.42,2LDK+S（納戸）・3LDK,2LDK+S,3LDK,相談,2022年11月末,,木造3階建（軸組工法）,東京都世田谷区等々力７-20-6,東急大井町線,尾山台,,,15,https://suumo.jp/ikkodate/tokyo/sc_setagaya/nc_98399204/,35.6151985,139.6584219
桜３（上町駅） 1億2500万円,新築一戸建て,1億2500万円,12500,12500.0,128.13m,128.13,128.13,75.12m（登記）,75.12,75.12,2LDK+S（納戸）,2LDK+S,2LDK+S,即引渡可,2022年11月,,木造3階建,東京都世田谷区桜３,東急世田谷線,上町,,,11,https://suumo.jp/ikkodate/tokyo/sc_setagaya/nc_71150896/,35.6406077,139.6388331
赤堤２（豪徳寺駅） 1億2800万円～1億8800万円,新築一戸建て,1億2800万円～1億8800万円,12800,18800.0,138.73m～194.25m（41.96坪～58.76坪）,138.73,194.25,81.99m～125.78m（24.80坪～38.04坪）（実測）,81.99,125.78,2LDK+S（納戸）～5LDK+S（納戸）,2LDK+S,5LDK+S,2023年3月下旬予定,2022年12月,,-,東京都世田谷区赤堤２,小田急線,豪徳寺,,,9,https://suumo.jp/ikkodate/tokyo/sc_setagaya/nc_71420381/,35.6577672,139.6458469
Luxsis 八幡山 Vol.17,新築一戸建て,1億2990万円（税込）,12990,12990.0,170.95m,170.95,170.95,104.17m,104.17,104.17,3LDK+2S（納戸）,3LDK+2S,3LDK+2S,2023年7月末予定,2023年6月末予定,,木造スレート葺　3階建て（制震住宅＋耐震住宅),東京都世田谷区南烏山１,京王線,八幡山,,,7,https://suumo.jp/ikkodate/tokyo/sc_setagaya/nc_71145345/,35.6679832,139.6114238
□■世田谷公園至近！■□新築戸建全3棟・南道路で陽当り◎の大型4LDK！！,新築一戸建て,1億3180万円～1億3980万円,13180,13980.0,116.72m～125.98m（35.30坪～38.10坪）（実測）,116.72,125.98,78.7m～83.44m（23.80坪～25.24坪）（実測）,78.7,83.44,4LDK,4LDK,4LDK,2023年9月上旬予定,2023年8月下旬予定,,木造,東京都世田谷区下馬１,東急東横線,祐天寺,,,13,https://suumo.jp/ikkodate/tokyo/sc_setagaya/nc_71525219/,35.6400111,139.6815661
まちなかジーヴォ世田谷区給田　(分譲住宅)【ダイワハウス】,新築一戸建て,1億3350万円,13350,13350.0,111.11m,111.11,111.11,125.2m,125.2,125.2,3LDK,3LDK,3LDK,即引渡可,2022年12月,,軽量鉄骨2階建(1戸),東京都世田谷区給田３-308-13,京王線,千歳烏山,,,8,https://suumo.jp/ikkodate/tokyo/sc_setagaya/nc_71618237/,35.6660087,139.5923085
【現地内覧会2/18（土）・2/19（日）開催中！】未来と暮らすハイグレード新築住宅,新築一戸建て,1億3800万円,13800,13800.0,113.95m（34.46坪）,113.95,113.95,101.13m（30.59坪）,101.13,101.13,2LDK+2S（納戸）,2LDK+2S,2LDK+2S,即引渡可,2022年9月,,木造2階建,東京都世田谷区松原５,小田急線,梅ヶ丘,,,9,https://suumo.jp/ikkodate/tokyo/sc_setagaya/nc_71735511/,35.6626271,139.6522237
宮坂１（経堂駅） 5990万円,中古一戸建て,5990万円,5990,5990.0,82.8m（25.04坪）,82.8,82.8,86.71m（26.22坪）（登記）、路地状部分：13.74m含,86.71,86.71,2LDK+2S（納戸）,2LDK+2S,2LDK+2S,相談,2001年11月,,木造2階建,東京都世田谷区宮坂１,小田急線,経堂,,,12,https://suumo.jp/chukoikkodate/tokyo/sc_setagaya/nc_70693090/,35.648516,139.6413835
中町４（上野毛駅） 5990万円,中古一戸建て,5990万円,5990,5990.0,64.12m（登記）,64.12,64.12,69.05m（登記）,69.05,69.05,3DK,3DK,3DK,相談,1976年4月,,木造2階建,東京都世田谷区中町４,東急大井町線,上野毛,,,10,https://suumo.jp/chukoikkodate/tokyo/sc_setagaya/nc_71773607/,35.6177391,139.6432963
宇奈根１ 6080万円,中古一戸建て,6080万円,6080,6080.0,113.01m（34.18坪）（登記）,113.01,113.01,90.26m（27.30坪）（登記）,90.26,90.26,4LDK,4LDK,4LDK,相談,2022年9月,,木造2階建,東京都世田谷区宇奈根１,東急田園都市線,二子玉川,砧本村,13,7,https://suumo.jp/chukoikkodate/tokyo/sc_setagaya/nc_71675835/,35.6203799,139.6056885
深沢３（尾山台駅） 6180万円,中古一戸建て,6180万円,6180,6180.0,77.29m（23.38坪）（登記）,77.29,77.29,50.34m（15.22坪）（登記）,50.34,50.34,3LDK+S（納戸）,3LDK+S,3LDK+S,相談,2006年11月,,木造3階建,東京都世田谷区深沢３,東急大井町線,尾山台,,,16,https://suumo.jp/chukoikkodate/tokyo/sc_setagaya/nc_71412382/,35.6170098,139.6586012
玉川台２（用賀駅） 6180万円,中古一戸建て,6180万円,6180,6180.0,51.66m（15.62坪）,51.66,51.66,48.62m（14.70坪）（登記）,48.62,48.62,3DK,3DK,3DK,相談,1994年5月,,木造2階建,東京都世田谷区玉川台２,東急田園都市線,用賀,,,6,https://suumo.jp/chukoikkodate/tokyo/sc_setagaya/nc_71132314/,35.62471439999999,139.6292703
上祖師谷５（仙川駅） 6200万円,中古一戸建て,6200万円,6200,6200.0,95.57m（登記）,95.57,95.57,82.49m（登記）、路地状部分：39m含,82.49,82.49,2LDK+3S（納戸）,2LDK+3S,2LDK+3S,相談,2010年9月,,木造3階建（軸組工法）,東京都世田谷区上祖師谷５,京王線,仙川,,,10,https://suumo.jp/chukoikkodate/tokyo/sc_setagaya/nc_70984891/,35.6568388,139.5923085
玉堤２（尾山台駅） 6280万円,中古一戸建て,6280万円,6280,6280.0,79.36m（登記）,79.36,79.36,63.7m（登記）,63.7,63.7,3LDK,3LDK,3LDK,相談,2019年9月,,木造3階建,東京都世田谷区玉堤２,東急大井町線,尾山台,,,14,https://suumo.jp/chukoikkodate/tokyo/sc_setagaya/nc_71618374/,35.5986228,139.6471222
祖師谷６（祖師ヶ谷大蔵駅） 6280万円,中古一戸建て,6280万円,6280,6280.0,87.77m（26.55坪）（登記）,87.77,87.77,112.75m（34.10坪）（登記）,112.75,112.75,2LDK+S（納戸）,2LDK+S,2LDK+S,相談,2005年1月,,木造2階建,東京都世田谷区祖師谷６,小田急線,祖師ヶ谷大蔵,,,20,https://suumo.jp/chukoikkodate/tokyo/sc_setagaya/nc_71357518/,35.6550973,139.6050513
玉堤２（尾山台駅） 6280万円,中古一戸建て,6280万円,6280,6280.0,79.36m,79.36,79.36,63.7m,63.7,63.7,3LDK,3LDK,3LDK,相談,2019年9月,,木造3階建,東京都世田谷区玉堤２,東急大井町線,尾山台,,,14,https://suumo.jp/chukoikkodate/tokyo/sc_setagaya/nc_71660557/,35.5986228,139.6471222
玉堤２（尾山台駅） 6280万円,中古一戸建て,6280万円,6280,6280.0,79.36m（登記）,79.36,79.36,63.7m（登記）,63.7,63.7,3LDK,3LDK,3LDK,相談,2019年9月,,木造3階建,東京都世田谷区玉堤２,東急大井町線,尾山台,,,14,https://suumo.jp/chukoikkodate/tokyo/sc_setagaya/nc_70798146/,35.5986228,139.6471222
北烏山８（千歳烏山駅） 6480万円,中古一戸建て,6480万円,6480,6480.0,100.03m（30.25坪）,100.03,100.03,103.79m（31.39坪）（登記）,103.79,103.79,4LDK,4LDK,4LDK,相談,2014年4月,,木造2階建,東京都世田谷区北烏山８,京王線,千歳烏山,,,25,https://suumo.jp/chukoikkodate/tokyo/sc_setagaya/nc_71428208/,35.676442,139.5897603
南烏山１（芦花公園駅） 6480万円,中古一戸建て,6480万円,6480,6480.0,91.7m（27.73坪）,91.7,91.7,78.18m（23.64坪）（登記）、路地状部分：23m含,78.18,78.18,1LDK+2S（納戸）,1LDK+2S,1LDK+2S,相談,2011年5月,,木造3階建,東京都世田谷区南烏山１,京王線,芦花公園,,,5,https://suumo.jp/chukoikkodate/tokyo/sc_setagaya/nc_71371817/,35.6679832,139.6114238
用賀３（用賀駅） 6480万円,中古一戸建て,6480万円,6480,6480.0,72.11m,72.11,72.11,48.6m,48.6,48.6,1LDK+S（納戸）,1LDK+S,1LDK+S,相談,2011年10月,,木造3階建,東京都世田谷区用賀３,東急田園都市線,用賀,,,7,https://suumo.jp/chukoikkodate/tokyo/sc_setagaya/nc_71678712/,35.6300878,139.6369204
松原３（下高井戸駅） 6499万円,中古一戸建て,6499万円,6499,6499.0,51.75m（実測）,51.75,51.75,53.42m（実測）,53.42,53.42,1LDK,1LDK,1LDK,相談,2005年7月,,木造2階建,東京都世田谷区松原３,京王線,下高井戸,,,7,https://suumo.jp/chukoikkodate/tokyo/sc_setagaya/nc_71275723/,35.6655983,139.6439339
上祖師谷４（仙川駅） 6500万円,中古一戸建て,6500万円,6500,6500.0,109.35m（登記）,109.35,109.35,217.38m（登記）,217.38,217.38,5LDK+S（納戸）,5LDK+S,5LDK+S,相談,1966年5月,,木造2階建,東京都世田谷区上祖師谷４,京王線,仙川,,,19,https://suumo.jp/chukoikkodate/tokyo/sc_setagaya/nc_70367415/,35.6549409,139.5961311
代田１（下北沢駅） 6590万円,中古一戸建て,6590万円,6590,6590.0,60.68m（18.35坪）（登記）,60.68,60.68,42.71m（12.91坪）（登記）,42.71,42.71,1LDK,1LDK,1LDK,相談,2020年10月,,木造3階建,東京都世田谷区代田１,小田急線,下北沢,,,15,https://suumo.jp/chukoikkodate/tokyo/sc_setagaya/nc_71420854/,35.6529684,139.6624281
東玉川１（石川台駅） 6680万円,中古一戸建て,6680万円,6680,6680.0,73.79m（22.32坪）,73.79,73.79,53.32m（16.12坪）,53.32,53.32,1LDK+S（納戸）,1LDK+S,1LDK+S,相談,2003年7月,,木造2階地下1階建一部RC,東京都世田谷区東玉川１,東急池上線,石川台,,,11,https://suumo.jp/chukoikkodate/tokyo/sc_setagaya/nc_71461456/,35.5971544,139.677738
東玉川１（石川台駅） 6680万円,中古一戸建て,6680万円,6680,6680.0,73.79m（登記）、うち地下室24.13m,73.79,73.79,53.32m（登記）,53.32,53.32,1LDK+S（納戸）,1LDK+S,1LDK+S,相談,2003年7月,,木造2階地下1階建一部RC,東京都世田谷区東玉川１,東急池上線,石川台,,,11,https://suumo.jp/chukoikkodate/tokyo/sc_setagaya/nc_71655454/,35.5971544,139.677738
東玉川１（雪が谷大塚駅） 6680万円,中古一戸建て,6680万円,6680,6680.0,73.79m、うち地下室24.13m,73.79,73.79,53.32m（登記）,53.32,53.32,1LDK+2S（納戸）,1LDK+2S,1LDK+2S,相談,2003年7月,,木造2階地下1階建,東京都世田谷区東玉川１,東急池上線,雪が谷大塚,,,11,https://suumo.jp/chukoikkodate/tokyo/sc_setagaya/nc_71423117/,35.5971544,139.677738
東玉川１（雪が谷大塚駅） 6680万円,中古一戸建て,6680万円,6680,6680.0,73.79m,73.79,73.79,53.32m,53.32,53.32,1LDK+S（納戸）,1LDK+S,1LDK+S,相談,2003年7月,,木造2階地下1階建,東京都世田谷区東玉川１,東急池上線,雪が谷大塚,,,11,https://suumo.jp/chukoikkodate/tokyo/sc_setagaya/nc_71426975/,35.5971544,139.677738
セキュレア世田谷野毛1丁目　(分譲住宅)【ダイワハウス】,新築一戸建て,1億3900万円,13900,13900.0,92.73m,92.73,92.73,119.29m,119.29,119.29,3LDK,3LDK,3LDK,即引渡可,2022年12月,,木造2階建(1戸),東京都世田谷区野毛１-73-12,東急大井町線,等々力,,,10,https://suumo.jp/ikkodate/tokyo/sc_setagaya/nc_71460707/,35.603335,139.6445716
世田谷区大原の新築２世帯住宅,新築一戸建て,1億4000万円,14000,14000.0,140m,140.0,140.0,125m、路地状部分：15m含,125.0,125.0,3LDDKK+3S（納戸）,3LDDKK+3S,3LDDKK+3S,契約後3ヶ月,2023年1月,,木造2階建,東京都世田谷区大原１,京王線,笹塚,,,7,https://suumo.jp/ikkodate/tokyo/sc_setagaya/nc_71432555/,35.6692227,139.6643416
【新年！現地内覧会開催！即日ご案内できます】新築分譲デザイン住宅！,新築一戸建て,1億4480万円,14480,14480.0,121.58m（36.77坪）（実測）、うち１階車庫8.59m,121.58,121.58,80.49m（24.34坪）（登記）,80.49,80.49,3LDK,3LDK,3LDK,即引渡可,2022年12月,,木造3階建一部RC,東京都世田谷区下馬６,東急東横線,学芸大学,,,9,https://suumo.jp/ikkodate/tokyo/sc_setagaya/nc_71462937/,35.6298053,139.679014
上用賀１（用賀駅） 1億4590万円,新築一戸建て,1億4590万円,14590,14590.0,166.41m,166.41,166.41,97.82m（登記）,97.82,97.82,1LDK,1LDK,1LDK,即引渡可,2022年12月,,木造3階建,東京都世田谷区上用賀１,東急田園都市線,用賀,,,12,https://suumo.jp/ikkodate/tokyo/sc_setagaya/nc_71487159/,35.6330159,139.6356453
Luxsis 下北沢 Vol.9,新築一戸建て,1億4990万円（税込）,14990,14990.0,131.99m～147.16m,131.99,147.16,94.13m～134.66m,94.13,134.66,3LDK+S（納戸）～4LDK,3LDK+S,4LDK,2023年9月予定,2023年8月末予定,,A号棟：木造スレート葺　3階建て(制震住宅＋耐震住宅)　B号棟：木造スレート葺　2階建て(制震住宅),東京都世田谷区北沢４,小田急線,下北沢,,,10,https://suumo.jp/ikkodate/tokyo/sc_setagaya/nc_71173700/,35.66700429999999,139.6688067
深沢１（自由が丘駅） 1億5480万円～1億6480万円,新築一戸建て,1億5480万円～1億6480万円,15480,16480.0,107.15m～123.54m,107.15,123.54,109.67m～140.75m,109.67,140.75,4LDK,4LDK,4LDK,相談,2023年3月下旬予定,,軽量鉄骨2階建,東京都世田谷区深沢１,東急東横線,自由が丘,,,18,https://suumo.jp/ikkodate/tokyo/sc_setagaya/nc_71561800/,35.6177182,139.6617903
世田谷区松原2丁目　新築戸建,新築一戸建て,1億5500万円,15500,15500.0,160.9m（48.67坪）（登記）、うち１階車庫16.65m,160.9,160.9,90.17m（27.27坪）（登記）,90.17,90.17,4LDK,4LDK,4LDK,相談,2022年8月,,木造3階建（軸組工法）,東京都世田谷区松原２,京王井の頭線,明大前,,,5,https://suumo.jp/ikkodate/tokyo/sc_setagaya/nc_71207176/,35.6676515,139.6490352
建物160m,新築一戸建て,1億5500万円,15500,15500.0,160.91m（実測）、うち１階車庫16.65m,160.91,160.91,90.17m（登記）,90.17,90.17,4LDK+S（納戸）,4LDK+S,4LDK+S,即引渡可,2022年9月,,木造3階建,東京都世田谷区松原２,京王線,明大前,,,5,https://suumo.jp/ikkodate/tokyo/sc_setagaya/nc_70929432/,35.6676515,139.6490352
松原４丁目　新築戸建,新築一戸建て,1億6300万円,16300,16300.0,174.66m（52.83坪）（登記）、うち１階車庫22.5m,174.66,174.66,100.16m（30.29坪）（登記）,100.16,100.16,5LDK,5LDK,5LDK,即引渡可,2022年11月,,木造3階建,東京都世田谷区松原４,東急世田谷線,松原,,,4,https://suumo.jp/ikkodate/tokyo/sc_setagaya/nc_71606529/,35.6618413,139.6445716
尾山台1丁目,新築一戸建て,1億7800万円,17800,17800.0,161.79m（登記）、うち地下車庫56.51m,161.79,161.79,141.92m（登記）,141.92,141.92,4LDK+S（納戸）,4LDK+S,4LDK+S,即引渡可,2022年6月,,木造2階地下1階建（軸組工法）一部RC,東京都世田谷区尾山台１,東急大井町線,九品仏,,,11,https://suumo.jp/ikkodate/tokyo/sc_setagaya/nc_71325652/,35.5987695,139.6560501
Luxsis　等々力Vol.4,新築一戸建て,1億8590万円～1億9590万円(税込),18590,19590.0,197.75m～199.95m,197.75,199.95,123.76m～123.78m,123.76,123.78,3LDK+2S（納戸）～4LDK+S（納戸）,3LDK+2S,4LDK+S,2023年3月下旬予定,2023年2月下旬予定,,木造3階建（耐震住宅+制震住宅）,東京都世田谷区等々力８,東急大井町線,等々力,,,10,https://suumo.jp/ikkodate/tokyo/sc_setagaya/nc_70573810/,35.6150799,139.6509483
野沢３丁目新築戸建,新築一戸建て,1億8800万円,18800,18800.0,152.98m（46.27坪）（実測）,152.98,152.98,135.25m（40.91坪）（実測）,135.25,135.25,1LDK+S（納戸）,1LDK+S,1LDK+S,相談,2022年10月,,木造2階建,東京都世田谷区野沢３,東急東横線,学芸大学,,,15,https://suumo.jp/ikkodate/tokyo/sc_setagaya/nc_70199543/,35.630562,139.6751861
世田谷区池尻4丁目　新築戸建,新築一戸建て,2億3000万円,23000,23000.0,182.16m（55.10坪）、うち１階車庫32.07m,182.16,182.16,112.59m（34.05坪）（実測）,112.59,112.59,4LDK,4LDK,4LDK,2023年3月予定,2023年3月,,木造3階建,東京都世田谷区池尻４,京王井の頭線,駒場東大前,,,11,https://suumo.jp/ikkodate/tokyo/sc_setagaya/nc_71513355/,35.6539013,139.679014
まちなかジーヴォ代沢2丁目　(分譲住宅)【ダイワハウス】,新築一戸建て,4億9500万円,49500,49500.0,238.75m,238.75,238.75,165.42m,165.42,165.42,2LDK,2LDK,2LDK,即引渡可,2022年12月,,木造2階建(1戸),東京都世田谷区代沢２-31番7,京王井の頭線,池ノ上,,,6,https://suumo.jp/ikkodate/tokyo/sc_setagaya/nc_71618230/,35.6599187,139.6695045
◆メルディア東玉川1丁目No.2◆,新築一戸建て,未定,未定,,97.72m・97.81m,97.72,97.81,90.07m,90.07,90.07,2LDK+S（納戸）・3LDK+S（納戸）,2LDK+S,3LDK+S,2023年8月末予定,2023年8月予定,,木造2階建（軸組工法）,東京都世田谷区東玉川１,東急池上線,雪が谷大塚,,,8,https://suumo.jp/ikkodate/tokyo/sc_setagaya/nc_71758715/,35.5971544,139.677738
【価格変更】　土地３０.５坪　整形地　南向き　建物参考価格２１００万円,建築条件付土地,4780万円,4780,4780.0,,,,100.93m（30.53坪）,100.93,100.93,,,,,,,,東京都世田谷区岡本３,東急田園都市線,二子玉川,,,25,https://suumo.jp/tochi/tokyo/sc_setagaya/nc_71757998/,35.6259506,139.6152476
Luxsis 祖師ヶ谷大蔵 Vol.17,建築条件付土地,5690万円,5690,5690.0,,,,80m,80.0,80.0,,,,,,,,東京都世田谷区祖師谷３,小田急線,祖師ヶ谷大蔵,,,10,https://suumo.jp/tochi/tokyo/sc_setagaya/nc_70883572/,35.6447785,139.6050513
南側、東側陽当り良好！給田3丁目売地【千歳烏山12分・仙川11分】約３１坪！,建築条件付土地,5980万円,5980,5980.0,,,,102.95m（登記）,102.95,102.95,,,,,,,,東京都世田谷区給田３,京王線,千歳烏山,,,12,https://suumo.jp/tochi/tokyo/sc_setagaya/nc_71607489/,35.6660087,139.5923085
東玉川１（石川台駅） 6680万円,中古一戸建て,6680万円,6680,6680.0,73.79m（22.32坪）（登記）,73.79,73.79,53.32m（16.12坪）（登記）,53.32,53.32,1LDK+S（納戸）,1LDK+S,1LDK+S,相談,2003年7月,,木造2階地下1階建,東京都世田谷区東玉川１,東急池上線,石川台,,,11,https://suumo.jp/chukoikkodate/tokyo/sc_setagaya/nc_71422419/,35.5971544,139.677738
東玉川１（石川台駅） 6680万円,中古一戸建て,6680万円,6680,6680.0,73.79m（22.32坪）（登記）,73.79,73.79,53.32m（16.12坪）（登記）,53.32,53.32,1LDK+2S（納戸）,1LDK+2S,1LDK+2S,相談,2003年7月,,木造2階地下1階建,東京都世田谷区東玉川１,東急池上線,石川台,,,11,https://suumo.jp/chukoikkodate/tokyo/sc_setagaya/nc_71411473/,35.5971544,139.677738
上北沢１（桜上水駅） 6700万円,中古一戸建て,6700万円,6700,6700.0,82m,82.0,82.0,82.13m（登記）,82.13,82.13,3LDK,3LDK,3LDK,相談,2016年8月,,木造2階建,東京都世田谷区上北沢１,京王線,桜上水,,,9,https://suumo.jp/chukoikkodate/tokyo/sc_setagaya/nc_71553465/,35.6621675,139.6254456
深沢３ 6780万円,中古一戸建て,6780万円,6780,6780.0,79.77m（24.13坪）（登記）,79.77,79.77,54.57m（16.50坪）（登記）,54.57,54.57,3LDK,3LDK,3LDK,相談,2009年5月,,木造3階建,東京都世田谷区深沢３,東急東横線,自由が丘,エーダンモール深沢,9,4,https://suumo.jp/chukoikkodate/tokyo/sc_setagaya/nc_71377554/,35.6170098,139.6586012
上祖師谷５（仙川駅） 6800万円,中古一戸建て,6800万円,6800,6800.0,117.32m（35.48坪）,117.32,117.32,107.24m（32.43坪）（登記）,107.24,107.24,3LDK,3LDK,3LDK,相談,2000年6月,,RC2階建,東京都世田谷区上祖師谷５,京王線,仙川,,,13,https://suumo.jp/chukoikkodate/tokyo/sc_setagaya/nc_70888570/,35.6568388,139.5923085
宇奈根２（成城学園前駅） 6880万円,中古一戸建て,6880万円,6880,6880.0,102.46m（30.99坪）（登記）,102.46,102.46,134.82m（40.78坪）（登記）,134.82,134.82,3LDK,3LDK,3LDK,相談,2014年12月,,木造2階建（軸組工法）,東京都世田谷区宇奈根２,小田急線,成城学園前,,,29,https://suumo.jp/chukoikkodate/tokyo/sc_setagaya/nc_71306378/,35.62062,139.600591
瀬田３（用賀駅） 6880万円,中古一戸建て,6880万円,6880,6880.0,65.66m（登記）,65.66,65.66,66.12m（登記）,66.12,66.12,3DK,3DK,3DK,相談,2012年12月,,木造2階建,東京都世田谷区瀬田３,東急田園都市線,用賀,,,12,https://suumo.jp/chukoikkodate/tokyo/sc_setagaya/nc_98102364/,35.6210313,139.6343703
尾山台３（尾山台駅） 6970万円,中古一戸建て,6970万円,6970,6970.0,81.3m（登記）、うち地下室23.89m,81.3,81.3,50.83m（登記）,50.83,50.83,3LDK,3LDK,3LDK,相談,2004年6月,,木造2階地下1階建,東京都世田谷区尾山台３,東急大井町線,尾山台,,,4,https://suumo.jp/chukoikkodate/tokyo/sc_setagaya/nc_96646003/,35.6051429,139.6547746
弦巻５（桜新町駅） 6980万円,中古一戸建て,6980万円,6980,6980.0,85.97m,85.97,85.97,49.12m,49.12,49.12,2LDK+2S（納戸）,2LDK+2S,2LDK+2S,相談,2012年1月,,木造3階建,東京都世田谷区弦巻５,東急田園都市線,桜新町,,,13,https://suumo.jp/chukoikkodate/tokyo/sc_setagaya/nc_71397030/,35.6368497,139.6394707
岡本１（用賀駅） 6980万円,中古一戸建て,6980万円,6980,6980.0,99.56m、うち１階車庫8.28m,99.56,99.56,59.39m（登記）,59.39,59.39,2LDK+S（納戸）,2LDK+S,2LDK+S,即引渡可,2011年4月,,木造3階建,東京都世田谷区岡本１,東急田園都市線,用賀,,,19,https://suumo.jp/chukoikkodate/tokyo/sc_setagaya/nc_71464153/,35.6257099,139.6203463
弦巻５（桜新町駅） 6980万円,中古一戸建て,6980万円,6980,6980.0,85.97m（登記）,85.97,85.97,49.12m（登記）,49.12,49.12,1LDK+3S（納戸）,1LDK+3S,1LDK+3S,相談,2012年1月,,木造2階地下1階建一部RC,東京都世田谷区弦巻５,東急田園都市線,桜新町,,,13,https://suumo.jp/chukoikkodate/tokyo/sc_setagaya/nc_71582926/,35.6368497,139.6394707
弦巻５（桜新町駅） 6980万円,中古一戸建て,6980万円,6980,6980.0,85.97m（26.00坪）（登記）,85.97,85.97,49.12m（14.85坪）（登記）,49.12,49.12,1LDK+S（納戸）,1LDK+S,1LDK+S,相談,2012年1月,,木造2階地下1階建,東京都世田谷区弦巻５,東急田園都市線,桜新町,,,13,https://suumo.jp/chukoikkodate/tokyo/sc_setagaya/nc_71413303/,35.6368497,139.6394707
経堂３（経堂駅） 6980万円,中古一戸建て,6980万円,6980,6980.0,77.59m（登記）,77.59,77.59,50.92m（登記）,50.92,50.92,1LDK+2S（納戸）,1LDK+2S,1LDK+2S,相談,2014年12月,,木造3階建,東京都世田谷区経堂３,小田急線,経堂,,,5,https://suumo.jp/chukoikkodate/tokyo/sc_setagaya/nc_71690716/,35.652241,139.6292703
上北沢５（八幡山駅） 6980万円,中古一戸建て,6980万円,6980,6980.0,85.68m,85.68,85.68,86.38m（登記）,86.38,86.38,3LDK+S（納戸）,3LDK+S,3LDK+S,相談,2005年7月,,木造2階建,東京都世田谷区上北沢５,京王線,八幡山,,,9,https://suumo.jp/chukoikkodate/tokyo/sc_setagaya/nc_71760385/,35.672844,139.6177969
岡本１（用賀駅） 6980万円,中古一戸建て,6980万円,6980,6980.0,90.4m（27.34坪）（登記）,90.4,90.4,59.39m（17.96坪）（実測）,59.39,59.39,3LDK,3LDK,3LDK,相談,2011年4月,,木造3階建,東京都世田谷区岡本１-37-13,東急田園都市線,用賀,,,21,https://suumo.jp/chukoikkodate/tokyo/sc_setagaya/nc_70750485/,35.6279983,139.6176176
等々力２（等々力駅） 6980万円,中古一戸建て,6980万円,6980,6980.0,72.61m（21.96坪）,72.61,72.61,85.54m（25.87坪）（登記）、路地状部分：33.5m含,85.54,85.54,2LDK,2LDK,2LDK,相談,2015年2月,,木造2階建（２×４工法）,東京都世田谷区等々力２,東急大井町線,等々力,,,4,https://suumo.jp/chukoikkodate/tokyo/sc_setagaya/nc_70496751/,35.6065343,139.6496729
弦巻５（桜新町駅） 6980万円,中古一戸建て,6980万円,6980,6980.0,85.97m,85.97,85.97,49.12m,49.12,49.12,1LDK+3S（納戸）,1LDK+3S,1LDK+3S,相談,2012年1月,,木造2階地下1階建,東京都世田谷区弦巻５,東急田園都市線,桜新町,,,13,https://suumo.jp/chukoikkodate/tokyo/sc_setagaya/nc_71397449/,35.6368497,139.6394707
弦巻５（桜新町駅） 6980万円,中古一戸建て,6980万円,6980,6980.0,85.97m（登記）,85.97,85.97,49.12m（登記）,49.12,49.12,1LDK+3S（納戸）,1LDK+3S,1LDK+3S,相談,2012年1月,,木造2階地下1階建一部RC,東京都世田谷区弦巻５,東急田園都市線,桜新町,,,13,https://suumo.jp/chukoikkodate/tokyo/sc_setagaya/nc_71525513/,35.6368497,139.6394707
上北沢５（八幡山駅） 6980万円,中古一戸建て,6980万円,6980,6980.0,85.68m（実測）,85.68,85.68,86.5m（実測）,86.5,86.5,3LDK+S（納戸）,3LDK+S,3LDK+S,相談,2005年7月,,木造2階建,東京都世田谷区上北沢５,京王線,八幡山,,,8,https://suumo.jp/chukoikkodate/tokyo/sc_setagaya/nc_71756257/,35.672844,139.6177969
上北沢５（八幡山駅） 6980万円,中古一戸建て,6980万円,6980,6980.0,85.68m（登記）,85.68,85.68,86.5m（実測）,86.5,86.5,3LDK+S（納戸）,3LDK+S,3LDK+S,相談,2005年7月,,木造2階建,東京都世田谷区上北沢５-４３－６,京王線,八幡山,,,8,https://suumo.jp/chukoikkodate/tokyo/sc_setagaya/nc_70987298/,35.6743912,139.6143912
